{
  "incident_location": [
    27.982083333333332,
    -82.46352777777778
  ],
  "casualties": [
    {
      "id": 0,
      "lat": 27.97998954033218,
      "lon": -82.46625719161769,
      "triage": "GREEN",
      "initial_health": 1.0
    },
    {
      "id": 1,
      "lat": 27.988294843097425,
      "lon": -82.46211220849163,
      "triage": "GREEN",
      "initial_health": 1.0
    },
    {
      "id": 2,
      "lat": 27.99076297391352,
      "lon": -82.46118014642435,
      "triage": "RED",
      "initial_health": 1.0
    },
    {
      "id": 3,
      "lat": 27.985993191479334,
      "lon": -82.46683079204973,
      "triage": "BLACK",
      "initial_health": 1.0
    },
    {
      "id": 4,
      "lat": 27.99142334577011,
      "lon": -82.46561107844472,
      "triage": "GREEN",
      "initial_health": 1.0
    },
    {
      "id": 5,
      "lat": 27.981821865849433,
      "lon": -82.46985000144576,
      "triage": "GREEN",
      "initial_health": 1.0
    },
    {
      "id": 6,
      "lat": 27.983424919017445,
      "lon": -82.4625129856345,
      "triage": "RED",
      "initial_health": 1.0
    },
    {
      "id": 7,
      "lat": 27.98820337011677,
      "lon": -82.46164302488944,
      "triage": "YELLOW",
      "initial_health": 1.0
    },
    {
      "id": 8,
      "lat": 27.98563981739594,
      "lon": -82.46403678037291,
      "triage": "YELLOW",
      "initial_health": 1.0
    },
    {
      "id": 9,
      "lat": 27.990377611077307,
      "lon": -82.46614226841149,
      "triage": "GREEN",
      "initial_health": 1.0
    },
    {
      "id": 10,
      "lat": 27.989617942873462,
      "lon": -82.46772887571755,
      "triage": "YELLOW",
      "initial_health": 1.0
    },
    {
      "id": 11,
      "lat": 27.98592871199491,
      "lon": -82.46646802950575,
      "triage": "GREEN",
      "initial_health": 1.0
    },
    {
      "id": 12,
      "lat": 27.982181175899303,
      "lon": -82.46255883281921,
      "triage": "YELLOW",
      "initial_health": 1.0
    },
    {
      "id": 13,
      "lat": 27.98545014377354,
      "lon": -82.46469398544848,
      "triage": "RED",
      "initial_health": 1.0
    },
    {
      "id": 14,
      "lat": 27.98972581426953,
      "lon": -82.46274081869062,
      "triage": "YELLOW",
      "initial_health": 1.0
    },
    {
      "id": 15,
      "lat": 27.99055668729483,
      "lon": -82.46519339366304,
      "triage": "RED",
      "initial_health": 1.0
    },
    {
      "id": 16,
      "lat": 27.985657611900255,
      "lon": -82.46510894093183,
      "triage": "GREEN",
      "initial_health": 1.0
    },
    {
      "id": 17,
      "lat": 27.979969449351643,
      "lon": -82.47126221510865,
      "triage": "YELLOW",
      "initial_health": 1.0
    },
    {
      "id": 18,
      "lat": 27.981610306048857,
      "lon": -82.46923781970696,
      "triage": "GREEN",
      "initial_health": 1.0
    },
    {
      "id": 19,
      "lat": 27.989361438324707,
      "lon": -82.46882486473187,
      "triage": "YELLOW",
      "initial_health": 1.0
    },
    {
      "id": 20,
      "lat": 27.985860722811275,
      "lon": -82.45890368164271,
      "triage": "BLACK",
      "initial_health": 1.0
    },
    {
      "id": 21,
      "lat": 27.985959266434676,
      "lon": -82.46143138892465,
      "triage": "GREEN",
      "initial_health": 1.0
    },
    {
      "id": 22,
      "lat": 27.98336117474441,
      "lon": -82.46567467799315,
      "triage": "GREEN",
      "initial_health": 1.0
    },
    {
      "id": 23,
      "lat": 27.983287355057353,
      "lon": -82.4662758578243,
      "triage": "RED",
      "initial_health": 1.0
    },
    {
      "id": 24,
      "lat": 27.99134384092301,
      "lon": -82.47252315088711,
      "triage": "YELLOW",
      "initial_health": 1.0
    },
    {
      "id": 25,
      "lat": 27.989517360700408,
      "lon": -82.46368039877225,
      "triage": "RED",
      "initial_health": 1.0
    },
    {
      "id": 26,
      "lat": 27.984888779503816,
      "lon": -82.4712574693275,
      "triage": "RED",
      "initial_health": 1.0
    },
    {
      "id": 27,
      "lat": 27.987887037089166,
      "lon": -82.46713292617353,
      "triage": "GREEN",
      "initial_health": 1.0
    },
    {
      "id": 28,
      "lat": 27.98860949725555,
      "lon": -82.4646518743279,
      "triage": "GREEN",
      "initial_health": 1.0
    },
    {
      "id": 29,
      "lat": 27.994770459315397,
      "lon": -82.46582730930638,
      "triage": "BLACK",
      "initial_health": 1.0
    },
    {
      "id": 30,
      "lat": 27.982956715587655,
      "lon": -82.46394346862544,
      "triage": "YELLOW",
      "initial_health": 1.0
    },
    {
      "id": 31,
      "lat": 27.988552439382325,
      "lon": -82.45863386489417,
      "triage": "YELLOW",
      "initial_health": 1.0
    },
    {
      "id": 32,
      "lat": 27.99132045491107,
      "lon": -82.46314428921657,
      "triage": "YELLOW",
      "initial_health": 1.0
    },
    {
      "id": 33,
      "lat": 27.99414731731494,
      "lon": -82.4700996427272,
      "triage": "RED",
      "initial_health": 1.0
    },
    {
      "id": 34,
      "lat": 27.98468357240708,
      "lon": -82.46891980071908,
      "triage": "RED",
      "initial_health": 1.0
    },
    {
      "id": 35,
      "lat": 27.98580831019025,
      "lon": -82.47094529664675,
      "triage": "YELLOW",
      "initial_health": 1.0
    },
    {
      "id": 36,
      "lat": 27.99042063356512,
      "lon": -82.4657502111197,
      "triage": "RED",
      "initial_health": 1.0
    },
    {
      "id": 37,
      "lat": 27.98094382597919,
      "lon": -82.46932031484819,
      "triage": "GREEN",
      "initial_health": 1.0
    },
    {
      "id": 38,
      "lat": 27.98897326661798,
      "lon": -82.46097863942722,
      "triage": "YELLOW",
      "initial_health": 1.0
    },
    {
      "id": 39,
      "lat": 27.996547743317066,
      "lon": -82.45163782788572,
      "triage": "GREEN",
      "initial_health": 1.0
    },
    {
      "id": 40,
      "lat": 27.989427296754194,
      "lon": -82.4692031305229,
      "triage": "GREEN",
      "initial_health": 1.0
    },
    {
      "id": 41,
      "lat": 27.97796824604116,
      "lon": -82.4635455074022,
      "triage": "YELLOW",
      "initial_health": 1.0
    },
    {
      "id": 42,
      "lat": 27.983904219375557,
      "lon": -82.46661931665356,
      "triage": "GREEN",
      "initial_health": 1.0
    },
    {
      "id": 43,
      "lat": 27.984808018708684,
      "lon": -82.46538376797163,
      "triage": "GREEN",
      "initial_health": 1.0
    },
    {
      "id": 44,
      "lat": 27.992359365342995,
      "lon": -82.46404349042925,
      "triage": "YELLOW",
      "initial_health": 1.0
    },
    {
      "id": 45,
      "lat": 27.98684859753778,
      "lon": -82.46941065087047,
      "triage": "YELLOW",
      "initial_health": 1.0
    },
    {
      "id": 46,
      "lat": 27.980026381053282,
      "lon": -82.46693859457358,
      "triage": "GREEN",
      "initial_health": 1.0
    },
    {
      "id": 47,
      "lat": 27.98732043282577,
      "lon": -82.45679452437165,
      "triage": "RED",
      "initial_health": 1.0
    },
    {
      "id": 48,
      "lat": 27.98814868965108,
      "lon": -82.46032788118315,
      "triage": "RED",
      "initial_health": 1.0
    },
    {
      "id": 49,
      "lat": 27.985315624111028,
      "lon": -82.47008245593163,
      "triage": "RED",
      "initial_health": 1.0
    },
    {
      "id": 50,
      "lat": 27.983219428874406,
      "lon": -82.46801372627316,
      "triage": "GREEN",
      "initial_health": 1.0
    },
    {
      "id": 51,
      "lat": 27.99714056810041,
      "lon": -82.46844644903926,
      "triage": "GREEN",
      "initial_health": 1.0
    },
    {
      "id": 52,
      "lat": 27.991335655721265,
      "lon": -82.46881338128414,
      "triage": "GREEN",
      "initial_health": 1.0
    },
    {
      "id": 53,
      "lat": 27.991754532862387,
      "lon": -82.46301792963527,
      "triage": "GREEN",
      "initial_health": 1.0
    },
    {
      "id": 54,
      "lat": 27.98685758376499,
      "lon": -82.46493364035035,
      "triage": "YELLOW",
      "initial_health": 1.0
    },
    {
      "id": 55,
      "lat": 27.98461590967502,
      "lon": -82.46274288407608,
      "triage": "YELLOW",
      "initial_health": 1.0
    },
    {
      "id": 56,
      "lat": 27.98551502864292,
      "lon": -82.4702654349197,
      "triage": "RED",
      "initial_health": 1.0
    },
    {
      "id": 57,
      "lat": 27.981811735220013,
      "lon": -82.463973563353,
      "triage": "RED",
      "initial_health": 1.0
    },
    {
      "id": 58,
      "lat": 27.9946683649583,
      "lon": -82.46403024672166,
      "triage": "GREEN",
      "initial_health": 1.0
    },
    {
      "id": 59,
      "lat": 27.98702858183696,
      "lon": -82.46346399135454,
      "triage": "YELLOW",
      "initial_health": 1.0
    }
  ],
  "ambulance_config": {
    "ambulances_per_hospital": 2,
    "ambulances_per_hospital_variation": 1,
    "field_ambulances": 5,
    "field_ambulance_radius_km": 10.0,
    "seed": 42
  },
  "hospitals": [
    {
      "id": "0031233525",
      "lat": 28.3479628600001,
      "lon": -82.2007200799999,
      "beds": 120,
      "trauma_level": 5,
      "helipad": false,
      "name": "ADVENT HEALTH DADE CITY",
      "city": "DADE CITY",
      "state": "FL"
    },
    {
      "id": "0007233484",
      "lat": 26.4371928410001,
      "lon": -80.127787747,
      "beds": 536,
      "trauma_level": 1,
      "helipad": true,
      "name": "DELRAY MEDICAL CENTER",
      "city": "DELRAY BEACH",
      "state": "FL"
    },
    {
      "id": "0036034758",
      "lat": 28.144780763,
      "lon": -81.476687855,
      "beds": 76,
      "trauma_level": 5,
      "helipad": true,
      "name": "POINCIANA MEDICAL CENTER",
      "city": "KISSIMMEE",
      "state": "FL"
    },
    {
      "id": "0036232068",
      "lat": 30.108762428,
      "lon": -81.832688692,
      "beds": 106,
      "trauma_level": 5,
      "helipad": true,
      "name": "ASSENCION ST. VINCENT'S MEDICAL CENTER CLAY COUNTY",
      "city": "MIDDLEBURG",
      "state": "FL"
    },
    {
      "id": "0036334471",
      "lat": 29.165875541,
      "lon": -82.1623349449999,
      "beds": 60,
      "trauma_level": 5,
      "helipad": false,
      "name": "ENCOMPASS HEALTH REHABILITATION HOSPITAL OF OCALA",
      "city": "OCALA",
      "state": "FL"
    },
    {
      "id": "0036634997",
      "lat": 27.133437293,
      "lon": -80.222455815,
      "beds": 54,
      "trauma_level": 5,
      "helipad": false,
      "name": "ENCOMPASS HEALTH REHABILITATION HOSPITAL AT MARTIN HEALTH",
      "city": "STUART",
      "state": "FL"
    },
    {
      "id": "0081532026",
      "lat": 30.0670519110001,
      "lon": -82.193850377,
      "beds": 59,
      "trauma_level": 5,
      "helipad": false,
      "name": "UNION CORRECTIONAL INSTITUTE HOSPITAL",
      "city": "RAIFORD",
      "state": "FL"
    },
    {
      "id": "0081632806",
      "lat": 28.5243398650001,
      "lon": -81.379153603,
      "beds": 285,
      "trauma_level": 5,
      "helipad": true,
      "name": "WINNIE PALMER HOSPITAL FOR WOMEN & BABIES",
      "city": "ORLANDO",
      "state": "FL"
    },
    {
      "id": "0082032514",
      "lat": 30.5163401230001,
      "lon": -87.216863022,
      "beds": 58,
      "trauma_level": 5,
      "helipad": true,
      "name": "WEST FLORIDA REHABILITATION INSTITUTE",
      "city": "PENSACOLA",
      "state": "FL"
    },
    {
      "id": "0082633607",
      "lat": 27.980230884,
      "lon": -82.492208722,
      "beds": -999,
      "trauma_level": 5,
      "helipad": true,
      "name": "ST JOSEPH'S WOMEN'S HOSPITAL",
      "city": "TAMPA",
      "state": "FL"
    },
    {
      "id": "0080132535",
      "lat": 30.970393835,
      "lon": -87.257597991,
      "beds": 34,
      "trauma_level": 5,
      "helipad": false,
      "name": "CENTURY HOSPITAL MEDICAL CENTER",
      "city": "CENTURY",
      "state": "FL"
    },
    {
      "id": "0005932821",
      "lat": 28.409114054,
      "lon": -81.469593393,
      "beds": 174,
      "trauma_level": 5,
      "helipad": false,
      "name": "CENTRAL FLORIDA BEHAVIORAL HOSPITAL",
      "city": "ORLANDO",
      "state": "FL"
    },
    {
      "id": "0010232803",
      "lat": 28.574414351,
      "lon": -81.369996427,
      "beds": 1368,
      "trauma_level": 5,
      "helipad": true,
      "name": "ADVENTHEALTH ORLANDO",
      "city": "ORLANDO",
      "state": "FL"
    },
    {
      "id": "0011832822",
      "lat": 28.5399802540001,
      "lon": -81.281540116,
      "beds": 295,
      "trauma_level": 5,
      "helipad": true,
      "name": "ADVENTHEALTH EAST ORLANDO",
      "city": "ORLANDO",
      "state": "FL"
    },
    {
      "id": "0015534761",
      "lat": 28.549662416,
      "lon": -81.5276599279999,
      "beds": 211,
      "trauma_level": 5,
      "helipad": true,
      "name": "HEALTH CENTRAL",
      "city": "OCOEE",
      "state": "FL"
    },
    {
      "id": "0034232803",
      "lat": 28.5722967250001,
      "lon": -81.370441796,
      "beds": 35,
      "trauma_level": 5,
      "helipad": false,
      "name": "SELECT SPECIALTY HOSPITAL - ORLANDO NORTH",
      "city": "ORLANDO",
      "state": "FL"
    },
    {
      "id": "0038334769",
      "lat": 28.24362232,
      "lon": -81.3028067239999,
      "beds": 84,
      "trauma_level": 5,
      "helipad": true,
      "name": "ST CLOUD REGIONAL MEDICAL CENTER",
      "city": "SAINT CLOUD",
      "state": "FL"
    },
    {
      "id": "0003333435",
      "lat": 26.5050572330001,
      "lon": -80.070563971,
      "beds": 401,
      "trauma_level": 5,
      "helipad": true,
      "name": "BETHESDA HOSPITAL EAST",
      "city": "BOYNTON BEACH",
      "state": "FL"
    },
    {
      "id": "0014133401",
      "lat": 26.7254617310001,
      "lon": -80.0518812669999,
      "beds": 333,
      "trauma_level": 5,
      "helipad": true,
      "name": "GOOD SAMARITAN MEDICAL CENTER",
      "city": "WEST PALM BEACH",
      "state": "FL"
    },
    {
      "id": "0006833407",
      "lat": 26.761323589,
      "lon": -80.087872693,
      "beds": 245,
      "trauma_level": 5,
      "helipad": false,
      "name": "JFK MEDICAL CENTER NORTH CAMPUS",
      "city": "WEST PALM BEACH",
      "state": "FL"
    },
    {
      "id": "0019933418",
      "lat": 26.7829789510001,
      "lon": -80.1104593429999,
      "beds": 70,
      "trauma_level": 5,
      "helipad": false,
      "name": "KINDRED HOSPITAL PALM BEACHES",
      "city": "RIVIERA BEACH",
      "state": "FL"
    },
    {
      "id": "0039133407",
      "lat": 26.755871143,
      "lon": -80.0624620309999,
      "beds": 460,
      "trauma_level": 1,
      "helipad": true,
      "name": "ST MARY'S MEDICAL CENTER",
      "city": "WEST PALM BEACH",
      "state": "FL"
    },
    {
      "id": "0042033428",
      "lat": 26.3561962630001,
      "lon": -80.199188577,
      "beds": 195,
      "trauma_level": 5,
      "helipad": true,
      "name": "WEST BOCA MEDICAL CENTER",
      "city": "BOCA RATON",
      "state": "FL"
    },
    {
      "id": "0042633410",
      "lat": 26.784928027,
      "lon": -80.112475236,
      "beds": 236,
      "trauma_level": 5,
      "helipad": false,
      "name": "WEST PALM BEACH VA MEDICAL CENTER",
      "city": "WEST PALM BEACH",
      "state": "FL"
    },
    {
      "id": "0012934689",
      "lat": 28.132933816,
      "lon": -82.75778618,
      "beds": 168,
      "trauma_level": 5,
      "helipad": true,
      "name": "ADVENTHEALTH NORTH PINELLAS",
      "city": "TARPON SPRINGS",
      "state": "FL"
    },
    {
      "id": "0026833756",
      "lat": 27.952816747,
      "lon": -82.803696838,
      "beds": 613,
      "trauma_level": 5,
      "helipad": true,
      "name": "MORTON PLANT HOSPITAL",
      "city": "CLEARWATER",
      "state": "FL"
    },
    {
      "id": "0039333710",
      "lat": 27.8054392110001,
      "lon": -82.727538744,
      "beds": 215,
      "trauma_level": 5,
      "helipad": false,
      "name": "ST PETERSBURG GENERAL HOSPITAL",
      "city": "SAINT PETERSBURG",
      "state": "FL"
    },
    {
      "id": "0012233872",
      "lat": 27.539751274,
      "lon": -81.5092099839999,
      "beds": 147,
      "trauma_level": 5,
      "helipad": true,
      "name": "ADVENTHEALTH SEBRING",
      "city": "SEBRING",
      "state": "FL"
    },
    {
      "id": "0013233613",
      "lat": 28.0710959690001,
      "lon": -82.4240611769999,
      "beds": 365,
      "trauma_level": 5,
      "helipad": true,
      "name": "ADVENTHEALTH TAMPA",
      "city": "TAMPA",
      "state": "FL"
    },
    {
      "id": "0018933612",
      "lat": 28.064409101,
      "lon": -82.429277019,
      "beds": 93,
      "trauma_level": 5,
      "helipad": false,
      "name": "JAMES A HALEY VETERANS' HOSPITAL",
      "city": "TAMPA",
      "state": "FL"
    },
    {
      "id": "0036033612",
      "lat": 28.0615605200001,
      "lon": -82.42284161,
      "beds": 60,
      "trauma_level": 5,
      "helipad": false,
      "name": "SHRINERS HOSPITALS FOR CHILDREN - TAMPA",
      "city": "TAMPA",
      "state": "FL"
    },
    {
      "id": "0036433563",
      "lat": 28.0156788480001,
      "lon": -82.138929363,
      "beds": 147,
      "trauma_level": 5,
      "helipad": true,
      "name": "SOUTH FLORIDA BAPTIST HOSPITAL",
      "city": "PLANT CITY",
      "state": "FL"
    },
    {
      "id": "0038833558",
      "lat": 28.1295801160001,
      "lon": -82.509675586,
      "beds": 108,
      "trauma_level": 5,
      "helipad": true,
      "name": "ST JOSEPH'S HOSPITAL NORTH",
      "city": "LUTZ",
      "state": "FL"
    },
    {
      "id": "0037734609",
      "lat": 28.5329355380001,
      "lon": -82.484208672,
      "beds": 66,
      "trauma_level": 5,
      "helipad": false,
      "name": "SPRINGBROOK HOSPITAL",
      "city": "BROOKSVILLE",
      "state": "FL"
    },
    {
      "id": "0032432054",
      "lat": 29.988435252,
      "lon": -82.357635252,
      "beds": 133,
      "trauma_level": 5,
      "helipad": false,
      "name": "RECEPTION AND MEDICAL CENTER HOSPITAL",
      "city": "LAKE BUTLER",
      "state": "FL"
    },
    {
      "id": "0007834233",
      "lat": 27.3019576310001,
      "lon": -82.453350609,
      "beds": 155,
      "trauma_level": 5,
      "helipad": false,
      "name": "DOCTORS HOSPITAL OF SARASOTA",
      "city": "SARASOTA",
      "state": "FL"
    },
    {
      "id": "0005533990",
      "lat": 26.6392051770001,
      "lon": -81.942022498,
      "beds": 291,
      "trauma_level": 5,
      "helipad": true,
      "name": "CAPE CORAL HOSPITAL",
      "city": "CAPE CORAL",
      "state": "FL"
    },
    {
      "id": "0011532721",
      "lat": 29.04365274,
      "lon": -81.3173440369999,
      "beds": 164,
      "trauma_level": 5,
      "helipad": true,
      "name": "ADVENTHEALTH DELAND",
      "city": "DELAND",
      "state": "FL"
    },
    {
      "id": "0013032176",
      "lat": 29.284636683,
      "lon": -81.03686657,
      "beds": 80,
      "trauma_level": 5,
      "helipad": false,
      "name": "FLORIDA HOSPITAL OCEANSIDE",
      "city": "ORMOND BEACH",
      "state": "FL"
    },
    {
      "id": "0015432117",
      "lat": 29.21401967,
      "lon": -81.068593274,
      "beds": 30,
      "trauma_level": 5,
      "helipad": false,
      "name": "HALIFAX PSYCHIATRIC CENTER-NORTH",
      "city": "DAYTONA BEACH",
      "state": "FL"
    },
    {
      "id": "0021233853",
      "lat": 27.8961999320001,
      "lon": -81.5652762679999,
      "beds": 160,
      "trauma_level": 5,
      "helipad": true,
      "name": "LAKE WALES MEDICAL CENTER",
      "city": "LAKE WALES",
      "state": "FL"
    },
    {
      "id": "0005432931",
      "lat": 28.3601248030001,
      "lon": -80.6229851699999,
      "beds": 150,
      "trauma_level": 5,
      "helipad": true,
      "name": "CAPE CANAVERAL HOSPITAL",
      "city": "COCOA BEACH",
      "state": "FL"
    },
    {
      "id": "0044032955",
      "lat": 28.334993796,
      "lon": -80.7228254409999,
      "beds": 298,
      "trauma_level": 5,
      "helipad": true,
      "name": "ROCKLEDGE REGIONAL MEDICAL CENTER",
      "city": "ROCKLEDGE",
      "state": "FL"
    },
    {
      "id": "0017533308",
      "lat": 26.186461072,
      "lon": -80.1199379029999,
      "beds": 557,
      "trauma_level": 5,
      "helipad": false,
      "name": "HOLY CROSS HOSPITAL",
      "city": "FORT LAUDERDALE",
      "state": "FL"
    },
    {
      "id": "0025133029",
      "lat": 25.9908681520001,
      "lon": -80.372751179,
      "beds": 178,
      "trauma_level": 5,
      "helipad": false,
      "name": "MEMORIAL HOSPITAL MIRAMAR",
      "city": "MIRAMAR",
      "state": "FL"
    },
    {
      "id": "0007333040",
      "lat": 24.5641986040001,
      "lon": -81.767407002,
      "beds": 49,
      "trauma_level": 5,
      "helipad": false,
      "name": "DEPOO HOSPITAL",
      "city": "KEY WEST",
      "state": "FL"
    },
    {
      "id": "0031733317",
      "lat": 26.1264094490001,
      "lon": -80.205267662,
      "beds": 264,
      "trauma_level": 5,
      "helipad": false,
      "name": "PLANTATION GENERAL HOSPITAL",
      "city": "PLANTATION",
      "state": "FL"
    },
    {
      "id": "0040933321",
      "lat": 26.2121503280001,
      "lon": -80.254154295,
      "beds": 317,
      "trauma_level": 5,
      "helipad": true,
      "name": "UNIVERSITY HOSPITAL AND MEDICAL CENTER",
      "city": "TAMARAC",
      "state": "FL"
    },
    {
      "id": "0023733070",
      "lat": 25.0061565440001,
      "lon": -80.522305079,
      "beds": 25,
      "trauma_level": 5,
      "helipad": true,
      "name": "MARINERS HOSPITAL",
      "city": "TAVERNIER",
      "state": "FL"
    },
    {
      "id": "0028133150",
      "lat": 25.8597859490001,
      "lon": -80.214704105,
      "beds": 337,
      "trauma_level": 5,
      "helipad": false,
      "name": "NORTH SHORE MEDICAL CENTER",
      "city": "MIAMI",
      "state": "FL"
    },
    {
      "id": "0036633034",
      "lat": 25.4194064500001,
      "lon": -80.4914297509999,
      "beds": 249,
      "trauma_level": 5,
      "helipad": false,
      "name": "SOUTH FLORIDA EVALUATION AND TREATMENT CENTER",
      "city": "FLORIDA CITY",
      "state": "FL"
    },
    {
      "id": "0036933143",
      "lat": 25.702107773,
      "lon": -80.294273177,
      "beds": 436,
      "trauma_level": 5,
      "helipad": false,
      "name": "SOUTH MIAMI HOSPITAL",
      "city": "MIAMI",
      "state": "FL"
    },
    {
      "id": "0042534474",
      "lat": 29.1411010300001,
      "lon": -82.200081117,
      "beds": 94,
      "trauma_level": 5,
      "helipad": false,
      "name": "WEST MARION COMMUNITY HOSPITAL",
      "city": "OCALA",
      "state": "FL"
    },
    {
      "id": "0023234208",
      "lat": 27.475655166,
      "lon": -82.539686466,
      "beds": 37,
      "trauma_level": 5,
      "helipad": false,
      "name": "CENTERSTONE OF FLORIDA",
      "city": "BRADENTON",
      "state": "FL"
    },
    {
      "id": "0018032446",
      "lat": 30.786844413,
      "lon": -85.241314825,
      "beds": 62,
      "trauma_level": 5,
      "helipad": true,
      "name": "JACKSON HOSPITAL",
      "city": "MARIANNA",
      "state": "FL"
    },
    {
      "id": "0027932539",
      "lat": 30.735354627,
      "lon": -86.562525286,
      "beds": 110,
      "trauma_level": 5,
      "helipad": true,
      "name": "NORTH OKALOOSA MEDICAL CENTER",
      "city": "CRESTVIEW",
      "state": "FL"
    },
    {
      "id": "0021032025",
      "lat": 30.18182054,
      "lon": -82.636053465,
      "beds": 180,
      "trauma_level": 5,
      "helipad": false,
      "name": "LAKE CITY VA MEDICAL CENTER",
      "city": "LAKE CITY",
      "state": "FL"
    },
    {
      "id": "0042132570",
      "lat": 30.634375371,
      "lon": -87.042533282,
      "beds": 100,
      "trauma_level": 5,
      "helipad": false,
      "name": "WEST FLORIDA COMMUNITY CARE CENTER",
      "city": "MILTON",
      "state": "FL"
    },
    {
      "id": "0039632308",
      "lat": 30.456880933,
      "lon": -84.261407288,
      "beds": 772,
      "trauma_level": 2,
      "helipad": true,
      "name": "TALLAHASSEE MEMORIAL HOSPITAL",
      "city": "TALLAHASSEE",
      "state": "FL"
    },
    {
      "id": "0001132501",
      "lat": 30.429417895,
      "lon": -87.230420903,
      "beds": 492,
      "trauma_level": 2,
      "helipad": true,
      "name": "BAPTIST HOSPITAL",
      "city": "PENSACOLA",
      "state": "FL"
    },
    {
      "id": "0002132258",
      "lat": 30.138777863,
      "lon": -81.5353848889999,
      "beds": 226,
      "trauma_level": 5,
      "helipad": true,
      "name": "BAPTIST MEDICAL CENTER SOUTH",
      "city": "JACKSONVILLE",
      "state": "FL"
    },
    {
      "id": "0004032216",
      "lat": 30.290213743,
      "lon": -81.6011747539999,
      "beds": 160,
      "trauma_level": 5,
      "helipad": true,
      "name": "BROOKS REHABILITATION HOSPITAL",
      "city": "JACKSONVILLE",
      "state": "FL"
    },
    {
      "id": "0037532207",
      "lat": 30.271624402,
      "lon": -81.615461889,
      "beds": 107,
      "trauma_level": 5,
      "helipad": false,
      "name": "CURAHEALTH JACKSONVILLE",
      "city": "JACKSONVILLE",
      "state": "FL"
    },
    {
      "id": "0002632401",
      "lat": 30.1597318300001,
      "lon": -85.6475323779999,
      "beds": 323,
      "trauma_level": 2,
      "helipad": true,
      "name": "BAY AREA CENTER SACRED HEART HEALTH SYSTEM",
      "city": "PANAMA CITY",
      "state": "FL"
    },
    {
      "id": "0015932405",
      "lat": 30.181889921,
      "lon": -85.669174992,
      "beds": 75,
      "trauma_level": 5,
      "helipad": false,
      "name": "ENCOMPASS HEALTH EMERALD COAST REHABILITATION OF PANAMA CITY",
      "city": "PANAMA CITY",
      "state": "FL"
    },
    {
      "id": "0015632435",
      "lat": 30.6597162210001,
      "lon": -86.117950419,
      "beds": 50,
      "trauma_level": 5,
      "helipad": false,
      "name": "HEALTHMARK REGIONAL MEDICAL CENTER",
      "city": "DEFUNIAK SPRINGS",
      "state": "FL"
    },
    {
      "id": "0079233950",
      "lat": 26.939444425,
      "lon": -82.040526139,
      "beds": 52,
      "trauma_level": 5,
      "helipad": true,
      "name": "RIVERSIDE BEHAVIORAL CENTER",
      "city": "PUNTA GORDA",
      "state": "FL"
    },
    {
      "id": "0079333469",
      "lat": 26.9770683790001,
      "lon": -80.1016992369999,
      "beds": 80,
      "trauma_level": 5,
      "helipad": false,
      "name": "SANDY PINES PSYCHIATRIC HOSPITAL",
      "city": "TEQUESTA",
      "state": "FL"
    },
    {
      "id": "0082132501",
      "lat": 30.4323569000001,
      "lon": -87.233155885,
      "beds": 16,
      "trauma_level": 5,
      "helipad": false,
      "name": "LAKEVIEW CENTER - PSYCHIATRIC HOSPITAL",
      "city": "PENSACOLA",
      "state": "FL"
    },
    {
      "id": "0080834950",
      "lat": 27.4338006610001,
      "lon": -80.3456378779999,
      "beds": 24,
      "trauma_level": 5,
      "helipad": false,
      "name": "LAWNWOOD PAVILION - PSYCHIATRIC HOSPITAL",
      "city": "FORT PIERCE",
      "state": "FL"
    },
    {
      "id": "0035733472",
      "lat": 26.5297280450001,
      "lon": -80.199767724,
      "beds": 401,
      "trauma_level": 5,
      "helipad": true,
      "name": "BETHESDA HOSPITAL WEST",
      "city": "BOYNTON BEACH",
      "state": "FL"
    },
    {
      "id": "0004134601",
      "lat": 28.5388338240001,
      "lon": -82.443491598,
      "beds": 120,
      "trauma_level": 5,
      "helipad": true,
      "name": "BAYFRONT HEALTH BROOKSVILLE",
      "city": "BROOKSVILLE",
      "state": "FL"
    },
    {
      "id": "0044332542",
      "lat": 30.4608398550001,
      "lon": -86.555232652,
      "beds": -999,
      "trauma_level": 5,
      "helipad": true,
      "name": "96TH MEDICAL GROUP-EGLIN HOSPITAL",
      "city": "EGLIN AFB",
      "state": "FL"
    },
    {
      "id": "0030133012",
      "lat": 25.868542426,
      "lon": -80.312269678,
      "beds": 247,
      "trauma_level": 5,
      "helipad": false,
      "name": "LARKIN COMMUNITY HOSPITAL PALM SPRINGS CAMPUS",
      "city": "HIALEAH",
      "state": "FL"
    },
    {
      "id": "0035332209",
      "lat": 30.3485052390001,
      "lon": -81.664274824,
      "beds": 603,
      "trauma_level": 1,
      "helipad": true,
      "name": "UF HEALTH JACKSONVILLE",
      "city": "JACKSONVILLE",
      "state": "FL"
    },
    {
      "id": "0022634748",
      "lat": 28.818101859,
      "lon": -81.874400217,
      "beds": 90,
      "trauma_level": 5,
      "helipad": false,
      "name": "LEESBURG REHABILITATION HOSPITAL",
      "city": "LEESBURG",
      "state": "FL"
    },
    {
      "id": "0021532808",
      "lat": 28.5676328920001,
      "lon": -81.434244883,
      "beds": 90,
      "trauma_level": 5,
      "helipad": true,
      "name": "ASPIRE HEALTH PARTNERS INC",
      "city": "ORLANDO",
      "state": "FL"
    },
    {
      "id": "0006333950",
      "lat": 26.9409464170001,
      "lon": -82.040277401,
      "beds": 280,
      "trauma_level": 5,
      "helipad": true,
      "name": "BAYFRONT HEALTH PUNTA GORDA",
      "city": "PUNTA GORDA",
      "state": "FL"
    },
    {
      "id": "0036533578",
      "lat": 27.787781212,
      "lon": -82.34510464,
      "beds": 114,
      "trauma_level": 5,
      "helipad": true,
      "name": "ST JOSEPH'S HOSPITAL SOUTH",
      "city": "RIVERVIEW",
      "state": "FL"
    },
    {
      "id": "0036833544",
      "lat": 28.195624133,
      "lon": -82.351142607,
      "beds": 145,
      "trauma_level": 5,
      "helipad": true,
      "name": "ADVENTHEALTH WESLEY CHAPEL",
      "city": "WESLEY CHAPEL",
      "state": "FL"
    },
    {
      "id": "0041233136",
      "lat": 25.7882977530001,
      "lon": -80.215652506,
      "beds": 40,
      "trauma_level": 5,
      "helipad": true,
      "name": "UNIVERSITY OF MIAMI HOSPITAL AND CLINICS",
      "city": "MIAMI",
      "state": "FL"
    },
    {
      "id": "0036933543",
      "lat": 28.2003665390001,
      "lon": -82.3238114179999,
      "beds": 126,
      "trauma_level": 5,
      "helipad": false,
      "name": "NORTH TAMPA BEHAVIORAL HEALTH",
      "city": "WESLEY CHAPEL",
      "state": "FL"
    },
    {
      "id": "0032533880",
      "lat": 28.0089756850001,
      "lon": -81.7261778559999,
      "beds": 61,
      "trauma_level": 5,
      "helipad": false,
      "name": "WINTER HAVEN WOMEN'S HOSPITAL",
      "city": "WINTER HAVEN",
      "state": "FL"
    },
    {
      "id": "0032334972",
      "lat": 27.2602680250001,
      "lon": -80.8286949769999,
      "beds": 100,
      "trauma_level": 5,
      "helipad": true,
      "name": "RAULERSON HOSPITAL",
      "city": "OKEECHOBEE",
      "state": "FL"
    },
    {
      "id": "0010832703",
      "lat": 28.680891758,
      "lon": -81.508075864,
      "beds": 120,
      "trauma_level": 5,
      "helipad": true,
      "name": "ADVENTHEALTH APOPKA",
      "city": "APOPKA",
      "state": "FL"
    },
    {
      "id": "0029732803",
      "lat": 28.580359705,
      "lon": -81.3217761399999,
      "beds": -999,
      "trauma_level": 5,
      "helipad": false,
      "name": "ORLANDO VETERANS AFFAIRS MEDICAL CENTER",
      "city": "ORLANDO",
      "state": "FL"
    },
    {
      "id": "0011434747",
      "lat": 28.3281284820001,
      "lon": -81.5408529329999,
      "beds": 237,
      "trauma_level": 5,
      "helipad": true,
      "name": "ADVENTHEALTH CELEBRATION",
      "city": "CELEBRATION",
      "state": "FL"
    },
    {
      "id": "0029834741",
      "lat": 28.29968039,
      "lon": -81.40919031,
      "beds": 396,
      "trauma_level": 2,
      "helipad": true,
      "name": "OSCEOLA REGIONAL MEDICAL CENTER",
      "city": "KISSIMMEE",
      "state": "FL"
    },
    {
      "id": "0022434748",
      "lat": 28.807834788,
      "lon": -81.868314286,
      "beds": 322,
      "trauma_level": 5,
      "helipad": true,
      "name": "LEESBURG REGIONAL MEDICAL CENTER",
      "city": "LEESBURG",
      "state": "FL"
    },
    {
      "id": "0017932960",
      "lat": 27.6584231050001,
      "lon": -80.3951633139999,
      "beds": 332,
      "trauma_level": 5,
      "helipad": true,
      "name": "CLEVELAND CLINIC INDIAN RIVER MEDICAL CENTER",
      "city": "VERO BEACH",
      "state": "FL"
    },
    {
      "id": "0021933774",
      "lat": 27.898712367,
      "lon": -82.824866546,
      "beds": 169,
      "trauma_level": 5,
      "helipad": false,
      "name": "LARGO MEDICAL CENTER - INDIAN ROCKS",
      "city": "LARGO",
      "state": "FL"
    },
    {
      "id": "0024534698",
      "lat": 28.0135453180001,
      "lon": -82.78322148,
      "beds": 120,
      "trauma_level": 5,
      "helipad": true,
      "name": "MEASE DUNEDIN HOSPITAL",
      "city": "DUNEDIN",
      "state": "FL"
    },
    {
      "id": "0030433707",
      "lat": 27.7530805050001,
      "lon": -82.740141461,
      "beds": 307,
      "trauma_level": 5,
      "helipad": false,
      "name": "PALMS OF PASADENA HOSPITAL",
      "city": "SAINT PETERSBURG",
      "state": "FL"
    },
    {
      "id": "0043333764",
      "lat": 27.8747548280001,
      "lon": -82.7108457269999,
      "beds": 144,
      "trauma_level": 5,
      "helipad": false,
      "name": "WINDMOOR HEALTHCARE OF CLEARWATER",
      "city": "CLEARWATER",
      "state": "FL"
    },
    {
      "id": "0012333852",
      "lat": 27.320042857,
      "lon": -81.3697301349999,
      "beds": 50,
      "trauma_level": 5,
      "helipad": true,
      "name": "ADVENTHEALTH LAKE PLACID",
      "city": "LAKE PLACID",
      "state": "FL"
    },
    {
      "id": "0017233870",
      "lat": 27.465589235,
      "lon": -81.432960583,
      "beds": 126,
      "trauma_level": 5,
      "helipad": true,
      "name": "HIGHLANDS REGIONAL MEDICAL CENTER",
      "city": "SEBRING",
      "state": "FL"
    },
    {
      "id": "0020133611",
      "lat": 27.898069089,
      "lon": -82.519059794,
      "beds": 73,
      "trauma_level": 5,
      "helipad": false,
      "name": "KINDRED HOSPITAL-BAY AREA-TAMPA",
      "city": "TAMPA",
      "state": "FL"
    },
    {
      "id": "0025233609",
      "lat": 27.9379217800001,
      "lon": -82.4899045459999,
      "beds": 139,
      "trauma_level": 5,
      "helipad": false,
      "name": "MEMORIAL HOSPITAL OF TAMPA",
      "city": "TAMPA",
      "state": "FL"
    },
    {
      "id": "0039833606",
      "lat": 27.9379627000001,
      "lon": -82.459155316,
      "beds": 1010,
      "trauma_level": 1,
      "helipad": true,
      "name": "TAMPA GENERAL HOSPITAL",
      "city": "TAMPA",
      "state": "FL"
    },
    {
      "id": "0016933440",
      "lat": 26.752681398,
      "lon": -80.941265554,
      "beds": 25,
      "trauma_level": 5,
      "helipad": true,
      "name": "HENDRY REGIONAL MEDICAL CENTER",
      "city": "CLEWISTON",
      "state": "FL"
    },
    {
      "id": "0040433615",
      "lat": 28.0023845740001,
      "lon": -82.5741747549999,
      "beds": 201,
      "trauma_level": 5,
      "helipad": true,
      "name": "TAMPA COMMUNITY HOSPITAL",
      "city": "TAMPA",
      "state": "FL"
    },
    {
      "id": "0006934240",
      "lat": 27.301848578,
      "lon": -82.44633807,
      "beds": 40,
      "trauma_level": 5,
      "helipad": false,
      "name": "COMPLEX CARE HOSPITAL AT RIDGELAKE",
      "city": "SARASOTA",
      "state": "FL"
    },
    {
      "id": "0033734239",
      "lat": 27.317850784,
      "lon": -82.5310823419999,
      "beds": 829,
      "trauma_level": 2,
      "helipad": true,
      "name": "SARASOTA MEMORIAL HOSPITAL",
      "city": "SARASOTA",
      "state": "FL"
    },
    {
      "id": "0006232771",
      "lat": 28.814536167,
      "lon": -81.28363207,
      "beds": 221,
      "trauma_level": 2,
      "helipad": true,
      "name": "CENTRAL FLORIDA REGIONAL HOSPITAL",
      "city": "SANFORD",
      "state": "FL"
    },
    {
      "id": "0037332750",
      "lat": 28.699206583,
      "lon": -81.352911665,
      "beds": 237,
      "trauma_level": 5,
      "helipad": true,
      "name": "ORLANDO HEALTH SOUTH SEMINOLE HOSPITAL",
      "city": "LONGWOOD",
      "state": "FL"
    },
    {
      "id": "0015833908",
      "lat": 26.5072800040001,
      "lon": -81.913048271,
      "beds": 496,
      "trauma_level": 5,
      "helipad": true,
      "name": "HEALTHPARK MEDICAL CENTER",
      "city": "FORT MYERS",
      "state": "FL"
    },
    {
      "id": "0022233901",
      "lat": 26.6283919100001,
      "lon": -81.8740243029999,
      "beds": 835,
      "trauma_level": 2,
      "helipad": true,
      "name": "LEE MEMORIAL HOSPITAL",
      "city": "FORT MYERS",
      "state": "FL"
    },
    {
      "id": "0015132114",
      "lat": 29.202384954,
      "lon": -81.054827885,
      "beds": 558,
      "trauma_level": 2,
      "helipad": true,
      "name": "HALIFAX HEALTH MEDICAL CENTER",
      "city": "DAYTONA BEACH",
      "state": "FL"
    },
    {
      "id": "0015332127",
      "lat": 29.126211508,
      "lon": -81.008573843,
      "beds": 558,
      "trauma_level": 5,
      "helipad": false,
      "name": "HALIFAX HEALTH MEDICAL CENTER- PORT ORANGE",
      "city": "PORT ORANGE",
      "state": "FL"
    },
    {
      "id": "0032734667",
      "lat": 28.3619604850001,
      "lon": -82.688255924,
      "beds": 290,
      "trauma_level": 2,
      "helipad": true,
      "name": "REGIONAL MEDICAL CENTER BAYONET POINT",
      "city": "HUDSON",
      "state": "FL"
    },
    {
      "id": "0016833837",
      "lat": 28.18143194,
      "lon": -81.641412745,
      "beds": 193,
      "trauma_level": 5,
      "helipad": true,
      "name": "HEART OF FLORIDA REGIONAL MEDICAL CENTER",
      "city": "DAVENPORT",
      "state": "FL"
    },
    {
      "id": "0021433805",
      "lat": 28.060381948,
      "lon": -81.954076325,
      "beds": 849,
      "trauma_level": 2,
      "helipad": true,
      "name": "LAKELAND REGIONAL MEDICAL CENTER",
      "city": "LAKELAND",
      "state": "FL"
    },
    {
      "id": "0043433881",
      "lat": 28.0284833370001,
      "lon": -81.725611687,
      "beds": 458,
      "trauma_level": 5,
      "helipad": true,
      "name": "WINTER HAVEN HOSPITAL",
      "city": "WINTER HAVEN",
      "state": "FL"
    },
    {
      "id": "0006532901",
      "lat": 28.0899205900001,
      "lon": -80.6159156859999,
      "beds": 52,
      "trauma_level": 5,
      "helipad": false,
      "name": "CIRCLES OF CARE",
      "city": "MELBOURNE",
      "state": "FL"
    },
    {
      "id": "0017432901",
      "lat": 28.087198017,
      "lon": -80.614437596,
      "beds": 514,
      "trauma_level": 2,
      "helipad": true,
      "name": "HOLMES REGIONAL MEDICAL CENTER",
      "city": "MELBOURNE",
      "state": "FL"
    },
    {
      "id": "0030932796",
      "lat": 28.63074177,
      "lon": -80.824201472,
      "beds": 163,
      "trauma_level": 5,
      "helipad": true,
      "name": "PARRISH MEDICAL CENTER",
      "city": "TITUSVILLE",
      "state": "FL"
    },
    {
      "id": "0004233065",
      "lat": 26.268752781,
      "lon": -80.255656216,
      "beds": 200,
      "trauma_level": 5,
      "helipad": false,
      "name": "BROWARD HEALTH CORAL SPRINGS",
      "city": "CORAL SPRINGS",
      "state": "FL"
    },
    {
      "id": "0004833064",
      "lat": 26.2770037390001,
      "lon": -80.120963778,
      "beds": 409,
      "trauma_level": 2,
      "helipad": true,
      "name": "BROWARD HEALTH NORTH",
      "city": "POMPANO BEACH",
      "state": "FL"
    },
    {
      "id": "0006733326",
      "lat": 26.0819221680001,
      "lon": -80.364894753,
      "beds": 155,
      "trauma_level": 5,
      "helipad": true,
      "name": "CLEVELAND CLINIC HOSPITAL",
      "city": "WESTON",
      "state": "FL"
    },
    {
      "id": "0013833301",
      "lat": 26.1196184630001,
      "lon": -80.1267737269999,
      "beds": 100,
      "trauma_level": 5,
      "helipad": false,
      "name": "FORT LAUDERDALE HOSPITAL",
      "city": "FORT LAUDERDALE",
      "state": "FL"
    },
    {
      "id": "0020533301",
      "lat": 26.1190866470001,
      "lon": -80.127550057,
      "beds": 70,
      "trauma_level": 5,
      "helipad": false,
      "name": "KINDRED HOSPITAL-SOUTH FLORIDA-FT LAUDERDALE",
      "city": "FORT LAUDERDALE",
      "state": "FL"
    },
    {
      "id": "0025733028",
      "lat": 26.0130154080001,
      "lon": -80.310800362,
      "beds": 446,
      "trauma_level": 5,
      "helipad": true,
      "name": "MEMORIAL HOSPITAL WEST",
      "city": "PEMBROKE PINES",
      "state": "FL"
    },
    {
      "id": "0025933021",
      "lat": 26.018941806,
      "lon": -80.1800219899999,
      "beds": 797,
      "trauma_level": 1,
      "helipad": true,
      "name": "MEMORIAL REGIONAL HOSPITAL",
      "city": "HOLLYWOOD",
      "state": "FL"
    },
    {
      "id": "0028833063",
      "lat": 26.2629748140001,
      "lon": -80.2028860349999,
      "beds": 228,
      "trauma_level": 5,
      "helipad": false,
      "name": "NORTHWEST MEDICAL CENTER",
      "city": "MARGATE",
      "state": "FL"
    },
    {
      "id": "0036733025",
      "lat": 26.001434348,
      "lon": -80.249802346,
      "beds": 350,
      "trauma_level": 5,
      "helipad": false,
      "name": "SOUTH FLORIDA STATE HOSPITAL",
      "city": "PEMBROKE PINES",
      "state": "FL"
    },
    {
      "id": "0038033311",
      "lat": 26.1636182880001,
      "lon": -80.193480446,
      "beds": 26,
      "trauma_level": 5,
      "helipad": false,
      "name": "ST ANTHONY'S REHABILITATION HOSPITAL",
      "city": "LAUDERDALE LAKES",
      "state": "FL"
    },
    {
      "id": "0006634452",
      "lat": 28.834034386,
      "lon": -82.335795713,
      "beds": 204,
      "trauma_level": 5,
      "helipad": true,
      "name": "CITRUS MEMORIAL HOSPITAL",
      "city": "INVERNESS",
      "state": "FL"
    },
    {
      "id": "0022933040",
      "lat": 24.580824948,
      "lon": -81.742580275,
      "beds": 49,
      "trauma_level": 5,
      "helipad": true,
      "name": "LOWER KEYS MEDICAL CENTER",
      "city": "KEY WEST",
      "state": "FL"
    },
    {
      "id": "0000933180",
      "lat": 25.970203182,
      "lon": -80.145396222,
      "beds": 407,
      "trauma_level": 2,
      "helipad": true,
      "name": "AVENTURA HOSPITAL AND MEDICAL CENTER",
      "city": "AVENTURA",
      "state": "FL"
    },
    {
      "id": "0007633146",
      "lat": 25.7241031020001,
      "lon": -80.274231081,
      "beds": 281,
      "trauma_level": 5,
      "helipad": false,
      "name": "DOCTORS HOSPITAL",
      "city": "CORAL GABLES",
      "state": "FL"
    },
    {
      "id": "0017733033",
      "lat": 25.479974487,
      "lon": -80.430086337,
      "beds": 142,
      "trauma_level": 5,
      "helipad": true,
      "name": "HOMESTEAD HOSPITAL",
      "city": "HOMESTEAD",
      "state": "FL"
    },
    {
      "id": "0018433136",
      "lat": 25.792347385,
      "lon": -80.213487745,
      "beds": 1493,
      "trauma_level": 1,
      "helipad": true,
      "name": "JACKSON MEMORIAL HOSPITAL",
      "city": "MIAMI",
      "state": "FL"
    },
    {
      "id": "0018633169",
      "lat": 25.9304107890001,
      "lon": -80.203685636,
      "beds": 382,
      "trauma_level": 5,
      "helipad": true,
      "name": "JACKSON NORTH",
      "city": "NORTH MIAMI BEACH",
      "state": "FL"
    },
    {
      "id": "0020433134",
      "lat": 25.763716786,
      "lon": -80.27894771,
      "beds": 55,
      "trauma_level": 5,
      "helipad": false,
      "name": "KINDRED HOSPITAL-SOUTH FLORIDA-CORAL GABLES",
      "city": "CORAL GABLES",
      "state": "FL"
    },
    {
      "id": "0027333140",
      "lat": 25.813219094,
      "lon": -80.139681562,
      "beds": 672,
      "trauma_level": 5,
      "helipad": true,
      "name": "MOUNT SINAI MEDICAL CENTER",
      "city": "MIAMI BEACH",
      "state": "FL"
    },
    {
      "id": "0026633155",
      "lat": 25.741456241,
      "lon": -80.2942967499999,
      "beds": 309,
      "trauma_level": 5,
      "helipad": true,
      "name": "NICKLAUS CHILDREN'S HOSPITAL",
      "city": "MIAMI",
      "state": "FL"
    },
    {
      "id": "0042733155",
      "lat": 25.7475093570001,
      "lon": -80.317455847,
      "beds": 125,
      "trauma_level": 5,
      "helipad": false,
      "name": "WESTCHESTER GENERAL HOSPITAL",
      "city": "MIAMI",
      "state": "FL"
    },
    {
      "id": "0023834997",
      "lat": 27.1336514440001,
      "lon": -80.224216616,
      "beds": 100,
      "trauma_level": 5,
      "helipad": false,
      "name": "CLEVELAND CLINIC MARTIN SOUTH",
      "city": "STUART",
      "state": "FL"
    },
    {
      "id": "0029034474",
      "lat": 29.175396415,
      "lon": -82.1367917809999,
      "beds": 222,
      "trauma_level": 2,
      "helipad": true,
      "name": "OCALA REGIONAL MEDICAL CENTER",
      "city": "OCALA",
      "state": "FL"
    },
    {
      "id": "0041734474",
      "lat": 29.155554255,
      "lon": -82.1705288759999,
      "beds": 76,
      "trauma_level": 5,
      "helipad": false,
      "name": "THE VINES HOSPITAL",
      "city": "OCALA",
      "state": "FL"
    },
    {
      "id": "0035632714",
      "lat": 28.646330559,
      "lon": -81.413059077,
      "beds": 50,
      "trauma_level": 5,
      "helipad": false,
      "name": "ENCOMPASS HEALTH REHABILITATION HOSPITAL OF ALTAMONTE SPRINGS",
      "city": "ALTAMONTE SPRINGS",
      "state": "FL"
    },
    {
      "id": "0030833908",
      "lat": 26.5104316580001,
      "lon": -81.9095689819999,
      "beds": 114,
      "trauma_level": 5,
      "helipad": false,
      "name": "PARK ROYAL HOSPITAL",
      "city": "FORT MYERS",
      "state": "FL"
    },
    {
      "id": "0035933905",
      "lat": 26.6304104970001,
      "lon": -81.802950584,
      "beds": 60,
      "trauma_level": 5,
      "helipad": false,
      "name": "SELECT SPECIALITY HOSPITAL OF FORT MYERS",
      "city": "FORT MYERS",
      "state": "FL"
    },
    {
      "id": "0041033136",
      "lat": 25.7886720110001,
      "lon": -80.215915662,
      "beds": 525,
      "trauma_level": 5,
      "helipad": true,
      "name": "UNIVERSITY OF MIAMI HOSPITAL",
      "city": "MIAMI",
      "state": "FL"
    },
    {
      "id": "0026233133",
      "lat": 25.7401586230001,
      "lon": -80.21435329,
      "beds": 488,
      "trauma_level": 5,
      "helipad": true,
      "name": "MERCY HOSPITAL",
      "city": "MIAMI",
      "state": "FL"
    },
    {
      "id": "0026433126",
      "lat": 25.77831589,
      "lon": -80.29358797,
      "beds": 146,
      "trauma_level": 5,
      "helipad": false,
      "name": "VARIETY CHILDRENS HOSPITAL",
      "city": "MIAMI",
      "state": "FL"
    },
    {
      "id": "0031534114",
      "lat": 26.1055354210001,
      "lon": -81.684884772,
      "beds": 100,
      "trauma_level": 5,
      "helipad": true,
      "name": "PHYSICIANS REGIONAL - COLLIER BOULEVARD",
      "city": "NAPLES",
      "state": "FL"
    },
    {
      "id": "0008132425",
      "lat": 30.761080812,
      "lon": -85.68303237,
      "beds": 20,
      "trauma_level": 5,
      "helipad": true,
      "name": "DOCTORS MEMORIAL HOSPITAL",
      "city": "BONIFAY",
      "state": "FL"
    },
    {
      "id": "0032832541",
      "lat": 30.3941219860001,
      "lon": -86.471911187,
      "beds": 237,
      "trauma_level": 5,
      "helipad": true,
      "name": "REHABILITATION INSTITUTE OF NORTHWEST FLORIDA",
      "city": "DESTIN",
      "state": "FL"
    },
    {
      "id": "0040632578",
      "lat": 30.533589098,
      "lon": -86.49547732,
      "beds": 65,
      "trauma_level": 5,
      "helipad": true,
      "name": "TWIN CITIES HOSPITAL",
      "city": "NICEVILLE",
      "state": "FL"
    },
    {
      "id": "0028732428",
      "lat": 30.7654920690001,
      "lon": -85.5428615389999,
      "beds": 59,
      "trauma_level": 5,
      "helipad": true,
      "name": "NORTHWEST FLORIDA COMMUNITY HOSPITAL",
      "city": "CHIPLEY",
      "state": "FL"
    },
    {
      "id": "0035632055",
      "lat": 30.1931335680001,
      "lon": -82.632756117,
      "beds": 99,
      "trauma_level": 5,
      "helipad": true,
      "name": "SHANDS LAKE SHORE REGIONAL MEDICAL CENTER",
      "city": "LAKE CITY",
      "state": "FL"
    },
    {
      "id": "0019032565",
      "lat": 30.949849543,
      "lon": -87.151269225,
      "beds": 49,
      "trauma_level": 5,
      "helipad": true,
      "name": "JAY HOSPITAL",
      "city": "JAY",
      "state": "FL"
    },
    {
      "id": "0039532216",
      "lat": 30.253377782,
      "lon": -81.582368845,
      "beds": 309,
      "trauma_level": 5,
      "helipad": true,
      "name": "ASSENCION ST VINCENT'S MEDICAL CENTER SOUTHSIDE",
      "city": "JACKSONVILLE",
      "state": "FL"
    },
    {
      "id": "0005732353",
      "lat": 30.568883241,
      "lon": -84.5486698569999,
      "beds": 266,
      "trauma_level": 5,
      "helipad": true,
      "name": "CAPITAL REGIONAL MEDICAL CENTER - GADSDEN MEMORIAL CAMPUS",
      "city": "QUINCY",
      "state": "FL"
    },
    {
      "id": "0034532401",
      "lat": 30.1597127950001,
      "lon": -85.64778936,
      "beds": 30,
      "trauma_level": 5,
      "helipad": true,
      "name": "SELECT SPECIALTY HOSPITAL - PANAMA CITY",
      "city": "PANAMA CITY",
      "state": "FL"
    },
    {
      "id": "0034332809",
      "lat": 28.4773875010001,
      "lon": -81.3701752269999,
      "beds": 64,
      "trauma_level": 5,
      "helipad": false,
      "name": "SELECT SPECIALTY HOSPITAL - ORLANDO SOUTH",
      "city": "ORLANDO",
      "state": "FL"
    },
    {
      "id": "0043632792",
      "lat": 28.5986447920001,
      "lon": -81.326911138,
      "beds": 320,
      "trauma_level": 5,
      "helipad": false,
      "name": "ADVENTHEALTH WINTER PARK MEMORIAL HOSPITAL",
      "city": "WINTER PARK",
      "state": "FL"
    },
    {
      "id": "0034433461",
      "lat": 26.609044082,
      "lon": -80.091450027,
      "beds": 60,
      "trauma_level": 5,
      "helipad": false,
      "name": "SELECT SPECIALTY HOSPITAL - PALM BEACH",
      "city": "LAKE WORTH",
      "state": "FL"
    },
    {
      "id": "0041933414",
      "lat": 26.6516621760001,
      "lon": -80.205063632,
      "beds": 233,
      "trauma_level": 5,
      "helipad": false,
      "name": "WELLINGTON REGIONAL MEDICAL CENTER",
      "city": "WELLINGTON",
      "state": "FL"
    },
    {
      "id": "0016732960",
      "lat": 27.661373461,
      "lon": -80.40030947,
      "beds": 80,
      "trauma_level": 5,
      "helipad": false,
      "name": "ENCOMPASS HEALTH TREASURE COAST REHABILITATION",
      "city": "VERO BEACH",
      "state": "FL"
    },
    {
      "id": "0003133701",
      "lat": 27.7634206110001,
      "lon": -82.6420818679999,
      "beds": 395,
      "trauma_level": 2,
      "helipad": true,
      "name": "BAYFRONT HEALTH ST PETERSBURG",
      "city": "SAINT PETERSBURG",
      "state": "FL"
    },
    {
      "id": "0028633709",
      "lat": 27.8255595960001,
      "lon": -82.702111988,
      "beds": 288,
      "trauma_level": 5,
      "helipad": true,
      "name": "NORTHSIDE HOSPITAL",
      "city": "SAINT PETERSBURG",
      "state": "FL"
    },
    {
      "id": "0015033612",
      "lat": 28.064098717,
      "lon": -82.421308026,
      "beds": 206,
      "trauma_level": 5,
      "helipad": false,
      "name": "H LEE MOFFITT CANCER CTR & RESEARCH INST",
      "city": "TAMPA",
      "state": "FL"
    },
    {
      "id": "0020233603",
      "lat": 27.989140739,
      "lon": -82.481608504,
      "beds": 102,
      "trauma_level": 5,
      "helipad": false,
      "name": "KINDRED HOSPITAL-CENTRAL TAMPA",
      "city": "TAMPA",
      "state": "FL"
    },
    {
      "id": "0036233573",
      "lat": 27.7135511270001,
      "lon": -82.365391411,
      "beds": 138,
      "trauma_level": 5,
      "helipad": true,
      "name": "SOUTH BAY HOSPITAL",
      "city": "SUN CITY CENTER",
      "state": "FL"
    },
    {
      "id": "0038733607",
      "lat": 27.991679983,
      "lon": -82.489818468,
      "beds": 780,
      "trauma_level": 5,
      "helipad": false,
      "name": "ST JOSEPH'S HOSPITAL BEHAVIORAL HEALTH CENTER",
      "city": "TAMPA",
      "state": "FL"
    },
    {
      "id": "0016334613",
      "lat": 28.5322636330001,
      "lon": -82.516960452,
      "beds": 80,
      "trauma_level": 5,
      "helipad": false,
      "name": "ENCOMPASS HEALTH REHABILITATION HOSPITAL OF SPRING HILL",
      "city": "BROOKSVILLE",
      "state": "FL"
    },
    {
      "id": "0028934613",
      "lat": 28.5362240580001,
      "lon": -82.534096049,
      "beds": 230,
      "trauma_level": 5,
      "helipad": true,
      "name": "OAK HILL HOSPITAL",
      "city": "BROOKSVILLE",
      "state": "FL"
    },
    {
      "id": "0008232348",
      "lat": 30.1201216430001,
      "lon": -83.593322139,
      "beds": 48,
      "trauma_level": 5,
      "helipad": true,
      "name": "DOCTORS MEMORIAL HOSPITAL",
      "city": "PERRY",
      "state": "FL"
    },
    {
      "id": "0009434223",
      "lat": 26.9502084480001,
      "lon": -82.326606469,
      "beds": 100,
      "trauma_level": 5,
      "helipad": true,
      "name": "ENGLEWOOD COMMUNITY HOSPITAL",
      "city": "ENGLEWOOD",
      "state": "FL"
    },
    {
      "id": "0016234240",
      "lat": 27.300939499,
      "lon": -82.44264592,
      "beds": 96,
      "trauma_level": 5,
      "helipad": false,
      "name": "ENCOMPASS HEALTH REHABILITATION HOSPITAL OF SARASOTA",
      "city": "SARASOTA",
      "state": "FL"
    },
    {
      "id": "0041334285",
      "lat": 27.0911641600001,
      "lon": -82.445089178,
      "beds": 312,
      "trauma_level": 5,
      "helipad": false,
      "name": "VENICE REGIONAL MEDICAL CENTER",
      "city": "VENICE",
      "state": "FL"
    },
    {
      "id": "0010532701",
      "lat": 28.665379482,
      "lon": -81.370158392,
      "beds": 393,
      "trauma_level": 5,
      "helipad": true,
      "name": "ADVENTHEALTH ALTAMONTE SPRINGS",
      "city": "ALTAMONTE SPRINGS",
      "state": "FL"
    },
    {
      "id": "0022134950",
      "lat": 27.4319697330001,
      "lon": -80.3457183099999,
      "beds": 331,
      "trauma_level": 2,
      "helipad": true,
      "name": "LAWNWOOD REGIONAL MEDICAL CENTER & HEART",
      "city": "FORT PIERCE",
      "state": "FL"
    },
    {
      "id": "0031934952",
      "lat": 27.2975300580001,
      "lon": -80.271111468,
      "beds": 75,
      "trauma_level": 5,
      "helipad": false,
      "name": "PORT ST LUCIE HOSPITAL",
      "city": "PORT SAINT LUCIE",
      "state": "FL"
    },
    {
      "id": "0032034484",
      "lat": 28.9098084020001,
      "lon": -82.0195542449999,
      "beds": 40,
      "trauma_level": 5,
      "helipad": false,
      "name": "SELECT SPECIALITY HOSPITAL OF FLORIDA AT THE VILLAGES",
      "city": "OXFORD",
      "state": "FL"
    },
    {
      "id": "0041632159",
      "lat": 28.950158779,
      "lon": -81.958335351,
      "beds": 299,
      "trauma_level": 5,
      "helipad": true,
      "name": "THE VILLAGES REGIONAL HOSPITAL, THE",
      "city": "THE VILLAGES",
      "state": "FL"
    },
    {
      "id": "0009832086",
      "lat": 29.86302203,
      "lon": -81.31709583,
      "beds": 335,
      "trauma_level": 5,
      "helipad": true,
      "name": "FLAGLER HOSPITAL",
      "city": "SAINT AUGUSTINE",
      "state": "FL"
    },
    {
      "id": "0003232168",
      "lat": 29.0202914710001,
      "lon": -80.921859576,
      "beds": 112,
      "trauma_level": 5,
      "helipad": false,
      "name": "ADVENTHEALTH NEW SMYRNA",
      "city": "NEW SMYRNA BEACH",
      "state": "FL"
    },
    {
      "id": "0040532696",
      "lat": 29.3840303920001,
      "lon": -82.454986866,
      "beds": 40,
      "trauma_level": 5,
      "helipad": true,
      "name": "REGIONAL GENERAL HOSPITAL WILLISTON",
      "city": "WILLISTON",
      "state": "FL"
    },
    {
      "id": "0013533541",
      "lat": 28.2615014730001,
      "lon": -82.185313218,
      "beds": 149,
      "trauma_level": 5,
      "helipad": true,
      "name": "ADVENTHEALTH ZEPHYRHILLS",
      "city": "ZEPHYRHILLS",
      "state": "FL"
    },
    {
      "id": "0024634655",
      "lat": 28.2039334180001,
      "lon": -82.660060587,
      "beds": 292,
      "trauma_level": 5,
      "helipad": true,
      "name": "MEDICAL CENTER OF TRINITY",
      "city": "TRINITY",
      "state": "FL"
    },
    {
      "id": "0027233549",
      "lat": 28.1871831,
      "lon": -82.4549554609999,
      "beds": 72,
      "trauma_level": 5,
      "helipad": false,
      "name": "MORTON PLANT NORTH BAY HOSPITAL RECOVERY CENTER",
      "city": "LUTZ",
      "state": "FL"
    },
    {
      "id": "0041532940",
      "lat": 28.227967877,
      "lon": -80.729332052,
      "beds": 84,
      "trauma_level": 5,
      "helipad": true,
      "name": "VIERA HOSPITAL",
      "city": "MELBOURNE",
      "state": "FL"
    },
    {
      "id": "0035032610",
      "lat": 29.639990133,
      "lon": -82.342864823,
      "beds": 946,
      "trauma_level": 1,
      "helipad": true,
      "name": "SHANDS HOSPITAL",
      "city": "GAINESVILLE",
      "state": "FL"
    },
    {
      "id": "0035832606",
      "lat": 29.6918007200001,
      "lon": -82.43611695,
      "beds": 40,
      "trauma_level": 5,
      "helipad": false,
      "name": "UH HEALTH SHANDS REHAB HOSPITAL",
      "city": "GAINESVILLE",
      "state": "FL"
    },
    {
      "id": "0020332043",
      "lat": 29.98784521,
      "lon": -81.682078205,
      "beds": 80,
      "trauma_level": 5,
      "helipad": false,
      "name": "KINDRED HOSPITAL-NORTH FLORIDA",
      "city": "GREEN COVE SPRINGS",
      "state": "FL"
    },
    {
      "id": "0025633024",
      "lat": 26.029793102,
      "lon": -80.245584816,
      "beds": 301,
      "trauma_level": 5,
      "helipad": false,
      "name": "MEMORIAL HOSPITAL PEMBROKE",
      "city": "PEMBROKE PINES",
      "state": "FL"
    },
    {
      "id": "0028233313",
      "lat": 26.163367454,
      "lon": -80.2185788959999,
      "beds": 459,
      "trauma_level": 5,
      "helipad": false,
      "name": "FLORIDA STATE HOSPITAL NORTH SHORE MEDICAL CENTER - FMC CAMPUS",
      "city": "LAUDERDALE LAKES",
      "state": "FL"
    },
    {
      "id": "0034834428",
      "lat": 28.9519580530001,
      "lon": -82.624502738,
      "beds": 128,
      "trauma_level": 5,
      "helipad": true,
      "name": "BAYFRONT HEALTH SEVEN RIVERS",
      "city": "CRYSTAL RIVER",
      "state": "FL"
    },
    {
      "id": "0001333176",
      "lat": 25.684430047,
      "lon": -80.338801862,
      "beds": 672,
      "trauma_level": 5,
      "helipad": true,
      "name": "BAPTIST HOSPITAL OF MIAMI",
      "city": "MIAMI",
      "state": "FL"
    },
    {
      "id": "0008333137",
      "lat": 25.8228281620001,
      "lon": -80.192446521,
      "beds": 32,
      "trauma_level": 5,
      "helipad": false,
      "name": "DOUGLAS GARDENS HOSPITAL",
      "city": "MIAMI",
      "state": "FL"
    },
    {
      "id": "0016133189",
      "lat": 25.5748498670001,
      "lon": -80.340978934,
      "beds": 60,
      "trauma_level": 5,
      "helipad": false,
      "name": "ENCOMPASS HEALTH REHABILITATION HOSPITAL OF MIAMI",
      "city": "MIAMI",
      "state": "FL"
    },
    {
      "id": "0030233016",
      "lat": 25.885766892,
      "lon": -80.3263609749999,
      "beds": 368,
      "trauma_level": 5,
      "helipad": true,
      "name": "PALMETTO GENERAL HOSPITAL",
      "city": "HIALEAH",
      "state": "FL"
    },
    {
      "id": "0042433196",
      "lat": 25.6781657710001,
      "lon": -80.4559557649999,
      "beds": 133,
      "trauma_level": 5,
      "helipad": false,
      "name": "WEST KENDALL BAPTIST HOSPITAL",
      "city": "MIAMI",
      "state": "FL"
    },
    {
      "id": "0005834474",
      "lat": 29.131065832,
      "lon": -82.219020885,
      "beds": 15,
      "trauma_level": 5,
      "helipad": false,
      "name": "THE CENTERS INC",
      "city": "OCALA",
      "state": "FL"
    },
    {
      "id": "0027534471",
      "lat": 29.1749043930001,
      "lon": -82.138994824,
      "beds": 421,
      "trauma_level": 5,
      "helipad": true,
      "name": "KINDRED HOSPITAL OCALA",
      "city": "OCALA",
      "state": "FL"
    },
    {
      "id": "0003434209",
      "lat": 27.4822005890001,
      "lon": -82.623741753,
      "beds": 294,
      "trauma_level": 2,
      "helipad": true,
      "name": "BLAKE MEDICAL CENTER",
      "city": "BRADENTON",
      "state": "FL"
    },
    {
      "id": "0021734202",
      "lat": 27.390597809,
      "lon": -82.435396168,
      "beds": 120,
      "trauma_level": 5,
      "helipad": true,
      "name": "LAKEWOOD RANCH MEDICAL CENTER",
      "city": "BRADENTON",
      "state": "FL"
    },
    {
      "id": "0005232440",
      "lat": 30.963035163,
      "lon": -85.506744552,
      "beds": 25,
      "trauma_level": 5,
      "helipad": false,
      "name": "CAMPBELLTON-GRACEVILLE HOSPITAL",
      "city": "GRACEVILLE",
      "state": "FL"
    },
    {
      "id": "0081333484",
      "lat": 26.436625301,
      "lon": -80.12847349,
      "beds": 90,
      "trauma_level": 5,
      "helipad": true,
      "name": "PINECREST REHAB HOSPITAL",
      "city": "DELRAY BEACH",
      "state": "FL"
    },
    {
      "id": "0167934997",
      "lat": 27.131449,
      "lon": -80.221261,
      "beds": 80,
      "trauma_level": 5,
      "helipad": false,
      "name": "CORAL SHORES BEHAVIORAL HEALTH",
      "city": "STUART",
      "state": "FL"
    },
    {
      "id": "0178334109",
      "lat": 26.2701740000001,
      "lon": -81.788584,
      "beds": 50,
      "trauma_level": 5,
      "helipad": false,
      "name": "LANDMARK HOSPITAL OF SOUTHWEST FLORIDA",
      "city": "NAPLES",
      "state": "FL"
    },
    {
      "id": "0178432765",
      "lat": 28.6578410000001,
      "lon": -81.228064,
      "beds": 64,
      "trauma_level": 5,
      "helipad": true,
      "name": "OVIEDO MEDICAL CENTER",
      "city": "OVIEDO",
      "state": "FL"
    },
    {
      "id": "0174932218",
      "lat": 30.483998,
      "lon": -81.6334189999999,
      "beds": 92,
      "trauma_level": 5,
      "helipad": false,
      "name": "UF HEALTH NORTH",
      "city": "JACKSONVILLE",
      "state": "FL"
    },
    {
      "id": "0181032827",
      "lat": 28.36614,
      "lon": -81.2757109999999,
      "beds": 134,
      "trauma_level": 5,
      "helipad": true,
      "name": "OLANDO VA MEDICAL CENTER",
      "city": "ORLANDO",
      "state": "FL"
    },
    {
      "id": "0036133133",
      "lat": 25.7400337020001,
      "lon": -80.214234317,
      "beds": 29,
      "trauma_level": 5,
      "helipad": true,
      "name": "SISTER EMMANUEL HOSPITAL",
      "city": "MIAMI",
      "state": "FL"
    },
    {
      "id": "0035832117",
      "lat": 29.2425623280001,
      "lon": -81.107418835,
      "beds": 34,
      "trauma_level": 5,
      "helipad": true,
      "name": "SELECT SPECIALTY HOSPITAL - DAYTONA BEACH",
      "city": "DAYTONA BEACH",
      "state": "FL"
    },
    {
      "id": "0034733128",
      "lat": 25.776845544,
      "lon": -80.210636543,
      "beds": 47,
      "trauma_level": 5,
      "helipad": false,
      "name": "SELECT SPECIALTY HOSPITAL-MIAMI",
      "city": "MIAMI",
      "state": "FL"
    },
    {
      "id": "0076232505",
      "lat": 30.4714432710001,
      "lon": -87.2526172239999,
      "beds": 120,
      "trauma_level": 5,
      "helipad": false,
      "name": "CONSULATE HEALTH CARE OF PENSACOLA",
      "city": "PENSACOLA",
      "state": "FL"
    },
    {
      "id": "0080533073",
      "lat": 26.3273082650001,
      "lon": -80.1888075849999,
      "beds": 40,
      "trauma_level": 5,
      "helipad": false,
      "name": "THE RENFREW CENTER OF FLORIDA",
      "city": "COCONUT CREEK",
      "state": "FL"
    },
    {
      "id": "0082333328",
      "lat": 26.046132431,
      "lon": -80.287216956,
      "beds": 88,
      "trauma_level": 5,
      "helipad": false,
      "name": "HIGH POINT TREATMENT CENTER",
      "city": "COOPER CITY",
      "state": "FL"
    },
    {
      "id": "0081933321",
      "lat": 26.2131551960001,
      "lon": -80.256774498,
      "beds": 60,
      "trauma_level": 5,
      "helipad": true,
      "name": "UNIVERSITY PAVILION - PSYCHIATRIC HOSPITAL",
      "city": "TAMARAC",
      "state": "FL"
    },
    {
      "id": "0023634210",
      "lat": 27.4597279560001,
      "lon": -82.612951427,
      "beds": 60,
      "trauma_level": 5,
      "helipad": false,
      "name": "SUNCOAST BEHAVIORAL HEALTH CENTER",
      "city": "BRADENTON",
      "state": "FL"
    },
    {
      "id": "0036133016",
      "lat": 25.9003369210001,
      "lon": -80.3315233659999,
      "beds": 60,
      "trauma_level": 5,
      "helipad": false,
      "name": "SELECT SPECIALITY HOSPITAL OF MIAMI",
      "city": "MIAMI LAKES",
      "state": "FL"
    },
    {
      "id": "0014332561",
      "lat": 30.3604819450001,
      "lon": -87.157054651,
      "beds": 77,
      "trauma_level": 5,
      "helipad": true,
      "name": "GULF BREEZE HOSPITAL",
      "city": "GULF BREEZE",
      "state": "FL"
    },
    {
      "id": "0005632308",
      "lat": 30.475713462,
      "lon": -84.231545335,
      "beds": 266,
      "trauma_level": 5,
      "helipad": true,
      "name": "CAPITAL REGIONAL MEDICAL CENTER",
      "city": "TALLAHASSEE",
      "state": "FL"
    },
    {
      "id": "0034032308",
      "lat": 30.4616885610001,
      "lon": -84.2529291439999,
      "beds": 48,
      "trauma_level": 5,
      "helipad": false,
      "name": "SELECT SPECIALTY HOSPITAL - TALLAHASSEE",
      "city": "TALLAHASSEE",
      "state": "FL"
    },
    {
      "id": "0042232514",
      "lat": 30.5156806420001,
      "lon": -87.217895142,
      "beds": 515,
      "trauma_level": 5,
      "helipad": true,
      "name": "WEST FLORIDA HOSPITAL",
      "city": "PENSACOLA",
      "state": "FL"
    },
    {
      "id": "0001632250",
      "lat": 30.2733735680001,
      "lon": -81.398316289,
      "beds": 146,
      "trauma_level": 5,
      "helipad": true,
      "name": "BAPTIST MEDICAL CENTER - BEACHES",
      "city": "JACKSONVILLE BEACH",
      "state": "FL"
    },
    {
      "id": "0024032224",
      "lat": 30.2639131290001,
      "lon": -81.441082678,
      "beds": 304,
      "trauma_level": 5,
      "helipad": true,
      "name": "MAYO CLINIC",
      "city": "JACKSONVILLE",
      "state": "FL"
    },
    {
      "id": "0032932216",
      "lat": 30.2907469740001,
      "lon": -81.5969855399999,
      "beds": 84,
      "trauma_level": 5,
      "helipad": false,
      "name": "RIVER POINT BEHAVIORAL HEALTH",
      "city": "JACKSONVILLE",
      "state": "FL"
    },
    {
      "id": "0041832216",
      "lat": 30.2578221200001,
      "lon": -81.595539948,
      "beds": 120,
      "trauma_level": 5,
      "helipad": false,
      "name": "WEKIVA SPRINGS",
      "city": "JACKSONVILLE",
      "state": "FL"
    },
    {
      "id": "0033132550",
      "lat": 30.378574671,
      "lon": -86.306856312,
      "beds": 58,
      "trauma_level": 5,
      "helipad": true,
      "name": "ASSENSION SACRED HEART HOSPITAL ON EMERALD COAST",
      "city": "MIRAMAR BEACH",
      "state": "FL"
    },
    {
      "id": "0005032424",
      "lat": 30.4586228320001,
      "lon": -85.05010386,
      "beds": 25,
      "trauma_level": 5,
      "helipad": true,
      "name": "CALHOUN-LIBERTY HOSPITAL",
      "city": "BLOUNTSTOWN",
      "state": "FL"
    },
    {
      "id": "0001732034",
      "lat": 30.653209803,
      "lon": -81.449123492,
      "beds": 54,
      "trauma_level": 5,
      "helipad": true,
      "name": "BAPTIST MEDICAL CENTER - NASSAU",
      "city": "FERNANDINA BEACH",
      "state": "FL"
    },
    {
      "id": "0082232827",
      "lat": 28.3767995850001,
      "lon": -81.273638956,
      "beds": 100,
      "trauma_level": 5,
      "helipad": true,
      "name": "NEMOURS CHILDREN'S HOSPITAL",
      "city": "ORLANDO",
      "state": "FL"
    },
    {
      "id": "0003833511",
      "lat": 27.932998883,
      "lon": -82.287810196,
      "beds": 422,
      "trauma_level": 5,
      "helipad": true,
      "name": "BRANDON REGIONAL HOSPITAL",
      "city": "BRANDON",
      "state": "FL"
    },
    {
      "id": "0081832207",
      "lat": 30.3153924910001,
      "lon": -81.663317272,
      "beds": 212,
      "trauma_level": 5,
      "helipad": true,
      "name": "WOLFSON CHILDREN'S HOSPITAL - JACKSONVILLE",
      "city": "JACKSONVILLE",
      "state": "FL"
    },
    {
      "id": "0022834748",
      "lat": 28.8369040920001,
      "lon": -81.895483036,
      "beds": 46,
      "trauma_level": 5,
      "helipad": false,
      "name": "LIFESTREAM BEHAVIORAL CENTER",
      "city": "LEESBURG",
      "state": "FL"
    },
    {
      "id": "0077934748",
      "lat": 28.8109536330001,
      "lon": -81.877919019,
      "beds": 46,
      "trauma_level": 5,
      "helipad": false,
      "name": "LIFESTREAM BEHAVIORAL CENTER",
      "city": "LEESBURG",
      "state": "FL"
    },
    {
      "id": "0027734110",
      "lat": 26.274308897,
      "lon": -81.7887450119999,
      "beds": 322,
      "trauma_level": 5,
      "helipad": true,
      "name": "NCH HEALTHCARE SYSTEM NORTH NAPLES HOSPITAL CAMPUS",
      "city": "NAPLES",
      "state": "FL"
    },
    {
      "id": "0031634119",
      "lat": 26.213952868,
      "lon": -81.732683792,
      "beds": 101,
      "trauma_level": 5,
      "helipad": true,
      "name": "PHYSICIANS REGIONAL - PINE RIDGE",
      "city": "NAPLES",
      "state": "FL"
    },
    {
      "id": "0029332806",
      "lat": 28.5257232180001,
      "lon": -81.377203551,
      "beds": 794,
      "trauma_level": 1,
      "helipad": true,
      "name": "ORLANDO REGIONAL MEDICAL CENTER",
      "city": "ORLANDO",
      "state": "FL"
    },
    {
      "id": "0036434987",
      "lat": 27.2612467710001,
      "lon": -80.426069532,
      "beds": 177,
      "trauma_level": 5,
      "helipad": true,
      "name": "CLEVELAND CLINIC TRADITION MEDICAL CENTER",
      "city": "PORT SAINT LUCIE",
      "state": "FL"
    },
    {
      "id": "0009033713",
      "lat": 27.7817420310001,
      "lon": -82.664677642,
      "beds": 110,
      "trauma_level": 5,
      "helipad": false,
      "name": "EDWARD WHITE HOSPITAL",
      "city": "SAINT PETERSBURG",
      "state": "FL"
    },
    {
      "id": "0038533607",
      "lat": 27.98214009,
      "lon": -82.491851476,
      "beds": 780,
      "trauma_level": 2,
      "helipad": true,
      "name": "ST JOSEPH'S HOSPITAL",
      "city": "TAMPA",
      "state": "FL"
    },
    {
      "id": "0036733607",
      "lat": 27.9825032690001,
      "lon": -82.490662072,
      "beds": 807,
      "trauma_level": 5,
      "helipad": true,
      "name": "ST. JOSEPH'S CHILDREN'S HOSPITAL",
      "city": "TAMPA",
      "state": "FL"
    },
    {
      "id": "0021833770",
      "lat": 27.9141474940001,
      "lon": -82.8036486569999,
      "beds": 256,
      "trauma_level": 5,
      "helipad": false,
      "name": "LARGO MEDICAL CENTER",
      "city": "LARGO",
      "state": "FL"
    },
    {
      "id": "0000532806",
      "lat": 28.5236186430001,
      "lon": -81.37927042,
      "beds": 506,
      "trauma_level": 5,
      "helipad": true,
      "name": "ARNOLD PALMER HOSPITAL FOR CHILDREN",
      "city": "ORLANDO",
      "state": "FL"
    },
    {
      "id": "0008632819",
      "lat": 28.429061549,
      "lon": -81.4794221289999,
      "beds": 237,
      "trauma_level": 5,
      "helipad": true,
      "name": "ORLANDO HEALTH DR P PHILLIPS HOSPITAL",
      "city": "ORLANDO",
      "state": "FL"
    },
    {
      "id": "0020732751",
      "lat": 28.613336045,
      "lon": -81.364760761,
      "beds": 40,
      "trauma_level": 5,
      "helipad": false,
      "name": "LA AMISTAD RESIDENTIAL TREATMENT CENTER",
      "city": "MAITLAND",
      "state": "FL"
    },
    {
      "id": "0040732826",
      "lat": 28.581805489,
      "lon": -81.1923045619999,
      "beds": 112,
      "trauma_level": 5,
      "helipad": false,
      "name": "UNIVERSITY BEHAVIORAL CENTER",
      "city": "ORLANDO",
      "state": "FL"
    },
    {
      "id": "0012434744",
      "lat": 28.316135042,
      "lon": -81.405970704,
      "beds": 162,
      "trauma_level": 5,
      "helipad": true,
      "name": "ADVENTHEALTH KISSIMMEE",
      "city": "KISSIMMEE",
      "state": "FL"
    },
    {
      "id": "0003633486",
      "lat": 26.35873272,
      "lon": -80.102834805,
      "beds": 394,
      "trauma_level": 5,
      "helipad": false,
      "name": "BOCA RATON REGIONAL HOSPITAL",
      "city": "BOCA RATON",
      "state": "FL"
    },
    {
      "id": "0019133407",
      "lat": 26.753958106,
      "lon": -80.067469059,
      "beds": 44,
      "trauma_level": 5,
      "helipad": false,
      "name": "THE JEROME GOLDEN CENTER FOR BEHAVIORAL HEALTH",
      "city": "WEST PALM BEACH",
      "state": "FL"
    },
    {
      "id": "0019233462",
      "lat": 26.5985861500001,
      "lon": -80.091168304,
      "beds": 486,
      "trauma_level": 5,
      "helipad": true,
      "name": "JFK MEDICAL CENTER",
      "city": "ATLANTIS",
      "state": "FL"
    },
    {
      "id": "0019433458",
      "lat": 26.9228733090001,
      "lon": -80.096366679,
      "beds": 283,
      "trauma_level": 5,
      "helipad": true,
      "name": "JUPITER MEDICAL CENTER",
      "city": "JUPITER",
      "state": "FL"
    },
    {
      "id": "0021633430",
      "lat": 26.7242715530001,
      "lon": -80.67111188,
      "beds": 70,
      "trauma_level": 5,
      "helipad": true,
      "name": "LAKESIDE MEDICAL CENTER",
      "city": "BELLE GLADE",
      "state": "FL"
    },
    {
      "id": "0030033410",
      "lat": 26.8296139,
      "lon": -80.086569916,
      "beds": 199,
      "trauma_level": 5,
      "helipad": true,
      "name": "PALM BEACH GARDENS MEDICAL CENTER",
      "city": "PALM BEACH GARDENS",
      "state": "FL"
    },
    {
      "id": "0030633470",
      "lat": 26.68356565,
      "lon": -80.2529053109999,
      "beds": 204,
      "trauma_level": 5,
      "helipad": true,
      "name": "PALMS WEST HOSPITAL",
      "city": "LOXAHATCHEE",
      "state": "FL"
    },
    {
      "id": "0032232177",
      "lat": 29.6423617140001,
      "lon": -81.69241585,
      "beds": 99,
      "trauma_level": 5,
      "helipad": true,
      "name": "PUTNAM COMMUNITY MEDICAL CENTER",
      "city": "PALATKA",
      "state": "FL"
    },
    {
      "id": "0013332778",
      "lat": 28.823672641,
      "lon": -81.711793714,
      "beds": 269,
      "trauma_level": 5,
      "helipad": true,
      "name": "ADVENTHEALTH WATERMAN",
      "city": "TAVARES",
      "state": "FL"
    },
    {
      "id": "0036834711",
      "lat": 28.5523736590001,
      "lon": -81.721776592,
      "beds": 170,
      "trauma_level": 5,
      "helipad": true,
      "name": "SOUTH LAKE HOSPITAL",
      "city": "CLERMONT",
      "state": "FL"
    },
    {
      "id": "0033932958",
      "lat": 27.8436910400001,
      "lon": -80.488786809,
      "beds": 154,
      "trauma_level": 5,
      "helipad": true,
      "name": "SEBASTIAN RIVER MEDICAL CENTER",
      "city": "SEBASTIAN",
      "state": "FL"
    },
    {
      "id": "0013433873",
      "lat": 27.5354532740001,
      "lon": -81.816961911,
      "beds": 25,
      "trauma_level": 5,
      "helipad": true,
      "name": "ADVENTHEALTH WAUCHULA",
      "city": "WAUCHULA",
      "state": "FL"
    },
    {
      "id": "0033232456",
      "lat": 29.7790236660001,
      "lon": -85.2878970199999,
      "beds": 19,
      "trauma_level": 5,
      "helipad": true,
      "name": "SACRED HEART HOSPITAL ON THE GULF",
      "city": "PORT SAINT JOE",
      "state": "FL"
    },
    {
      "id": "0002733744",
      "lat": 27.810699685,
      "lon": -82.778769966,
      "beds": 291,
      "trauma_level": 5,
      "helipad": true,
      "name": "BAY PINES VA HEALTHCARE SYSTEM",
      "city": "BAY PINES",
      "state": "FL"
    },
    {
      "id": "0002834698",
      "lat": 28.01366905,
      "lon": -82.783059677,
      "beds": 38,
      "trauma_level": 5,
      "helipad": true,
      "name": "BAYCARE ALLIANT HOSPITAL",
      "city": "DUNEDIN",
      "state": "FL"
    },
    {
      "id": "0016033770",
      "lat": 27.925412958,
      "lon": -82.7970152459999,
      "beds": 70,
      "trauma_level": 5,
      "helipad": false,
      "name": "ENCOMPASS HEALTH REHABILITATION HOSPITAL OF LARGO",
      "city": "LARGO",
      "state": "FL"
    },
    {
      "id": "0020033705",
      "lat": 27.7407459880001,
      "lon": -82.639993858,
      "beds": 82,
      "trauma_level": 5,
      "helipad": false,
      "name": "KINDRED HOSPITAL-BAY AREA-ST PETERSBURG",
      "city": "SAINT PETERSBURG",
      "state": "FL"
    },
    {
      "id": "0024334695",
      "lat": 28.0387469780001,
      "lon": -82.707985172,
      "beds": 311,
      "trauma_level": 5,
      "helipad": true,
      "name": "MEASE COUNTRYSIDE HOSPITAL",
      "city": "SAFETY HARBOR",
      "state": "FL"
    },
    {
      "id": "0037833705",
      "lat": 27.7786166170001,
      "lon": -82.650529722,
      "beds": 393,
      "trauma_level": 5,
      "helipad": false,
      "name": "ST ANTHONYS HOSPITAL",
      "city": "SAINT PETERSBURG",
      "state": "FL"
    },
    {
      "id": "0011133614",
      "lat": 28.0132377310001,
      "lon": -82.504007245,
      "beds": 103,
      "trauma_level": 5,
      "helipad": false,
      "name": "ADVENT HEALTH CARROLLWOOD",
      "city": "TAMPA",
      "state": "FL"
    },
    {
      "id": "0020832054",
      "lat": 30.0227142530001,
      "lon": -82.326909712,
      "beds": 25,
      "trauma_level": 5,
      "helipad": true,
      "name": "LAKE BUTLER HOSPITAL HAND SURGERY CENTER",
      "city": "LAKE BUTLER",
      "state": "FL"
    },
    {
      "id": "0043234113",
      "lat": 26.0960285140001,
      "lon": -81.736309756,
      "beds": 87,
      "trauma_level": 5,
      "helipad": false,
      "name": "WILLOUGH AT NAPLES HOSPITAL",
      "city": "NAPLES",
      "state": "FL"
    },
    {
      "id": "0037634609",
      "lat": 28.437487205,
      "lon": -82.540374948,
      "beds": 124,
      "trauma_level": 5,
      "helipad": true,
      "name": "BAYFRONT HEALTH SPRING HILL",
      "city": "SPRING HILL",
      "state": "FL"
    },
    {
      "id": "0007434266",
      "lat": 27.227404768,
      "lon": -81.851023399,
      "beds": 49,
      "trauma_level": 5,
      "helipad": true,
      "name": "DESOTO MEMORIAL HOSPITAL",
      "city": "ARCADIA",
      "state": "FL"
    },
    {
      "id": "0039034952",
      "lat": 27.288428004,
      "lon": -80.294296028,
      "beds": 229,
      "trauma_level": 5,
      "helipad": true,
      "name": "ST LUCIE MEDICAL CENTER",
      "city": "PORT SAINT LUCIE",
      "state": "FL"
    },
    {
      "id": "0014833912",
      "lat": 26.5436460180001,
      "lon": -81.8500077859999,
      "beds": 356,
      "trauma_level": 5,
      "helipad": true,
      "name": "GULF COAST MEDICAL CENTER LEE MEMORIAL H",
      "city": "FORT MYERS",
      "state": "FL"
    },
    {
      "id": "0022733936",
      "lat": 26.6157346270001,
      "lon": -81.659476331,
      "beds": 88,
      "trauma_level": 5,
      "helipad": true,
      "name": "LEHIGH REGIONAL MEDICAL CENTER",
      "city": "LEHIGH ACRES",
      "state": "FL"
    },
    {
      "id": "0011932763",
      "lat": 28.9143712490001,
      "lon": -81.2851623239999,
      "beds": 179,
      "trauma_level": 5,
      "helipad": true,
      "name": "ADVENTHEALTH FISH MEMORIAL",
      "city": "ORANGE CITY",
      "state": "FL"
    },
    {
      "id": "0012732117",
      "lat": 29.243109604,
      "lon": -81.1076567809999,
      "beds": 327,
      "trauma_level": 5,
      "helipad": true,
      "name": "ADVENTHEALTH DAYTONA BEACH",
      "city": "DAYTONA BEACH",
      "state": "FL"
    },
    {
      "id": "0010934637",
      "lat": 28.2952730910001,
      "lon": -82.4899138229999,
      "beds": 50,
      "trauma_level": 5,
      "helipad": false,
      "name": "ADVENTHEALTH CONNERTON",
      "city": "LAND O LAKES",
      "state": "FL"
    },
    {
      "id": "0024734652",
      "lat": 28.23570153,
      "lon": -82.7207661579999,
      "beds": 46,
      "trauma_level": 5,
      "helipad": true,
      "name": "MEDICAL CENTER OF TRINITY WEST PASCO CAM",
      "city": "NEW PORT RICHEY",
      "state": "FL"
    },
    {
      "id": "0027034652",
      "lat": 28.2540628880001,
      "lon": -82.714890457,
      "beds": 150,
      "trauma_level": 5,
      "helipad": true,
      "name": "MORTON PLANT NORTH BAY HOSPITAL",
      "city": "NEW PORT RICHEY",
      "state": "FL"
    },
    {
      "id": "0002333831",
      "lat": 27.918895922,
      "lon": -81.844210222,
      "beds": 72,
      "trauma_level": 5,
      "helipad": true,
      "name": "BARTOW REGIONAL MEDICAL CENTER",
      "city": "BARTOW",
      "state": "FL"
    },
    {
      "id": "0014032329",
      "lat": 29.7245342090001,
      "lon": -84.9925947569999,
      "beds": 25,
      "trauma_level": 5,
      "helipad": true,
      "name": "GEORGE E WEEMS MEMORIAL HOSPITAL",
      "city": "APALACHICOLA",
      "state": "FL"
    },
    {
      "id": "0012132164",
      "lat": 29.4789607180001,
      "lon": -81.189046506,
      "beds": 99,
      "trauma_level": 5,
      "helipad": true,
      "name": "ADVENTHEALTH PALM COAST",
      "city": "PALM COAST",
      "state": "FL"
    },
    {
      "id": "0007532940",
      "lat": 28.2341413790001,
      "lon": -80.708221431,
      "beds": 100,
      "trauma_level": 5,
      "helipad": false,
      "name": "DEVEREUX HOSPITAL AND CHILDREN'S CENTER OF FLORIDA",
      "city": "VIERA",
      "state": "FL"
    },
    {
      "id": "0016532901",
      "lat": 28.0555319490001,
      "lon": -80.620114535,
      "beds": 90,
      "trauma_level": 5,
      "helipad": false,
      "name": "SEA PINES REHABILITATION HOSPITAL",
      "city": "MELBOURNE",
      "state": "FL"
    },
    {
      "id": "0029932907",
      "lat": 27.99942824,
      "lon": -80.610948849,
      "beds": 138,
      "trauma_level": 5,
      "helipad": false,
      "name": "PALM BAY HOSPITAL",
      "city": "PALM BAY",
      "state": "FL"
    },
    {
      "id": "0035932091",
      "lat": 29.9402788130001,
      "lon": -82.101698126,
      "beds": 25,
      "trauma_level": 5,
      "helipad": true,
      "name": "SHANDS STARKE REGIONAL MEDICAL CENTER",
      "city": "STARKE",
      "state": "FL"
    },
    {
      "id": "0027832605",
      "lat": 29.6606130370001,
      "lon": -82.4121661579999,
      "beds": 432,
      "trauma_level": 5,
      "helipad": true,
      "name": "NORTH FLORIDA REGIONAL MEDICAL CENTER",
      "city": "GAINESVILLE",
      "state": "FL"
    },
    {
      "id": "0034132608",
      "lat": 29.6321334460001,
      "lon": -82.363950577,
      "beds": 44,
      "trauma_level": 5,
      "helipad": false,
      "name": "SELECT SPECIALTY HOSPITAL GAINESVILLE",
      "city": "GAINESVILLE",
      "state": "FL"
    },
    {
      "id": "0029232073",
      "lat": 30.165840239,
      "lon": -81.737589642,
      "beds": 230,
      "trauma_level": 2,
      "helipad": true,
      "name": "ORANGE PARK MEDICAL CENTER",
      "city": "ORANGE PARK",
      "state": "FL"
    },
    {
      "id": "0004633316",
      "lat": 26.1026354900001,
      "lon": -80.140889637,
      "beds": 656,
      "trauma_level": 1,
      "helipad": true,
      "name": "BROWARD HEALTH MEDICAL CENTER",
      "city": "FORT LAUDERDALE",
      "state": "FL"
    },
    {
      "id": "0016633351",
      "lat": 26.178072168,
      "lon": -80.2850991349999,
      "beds": 126,
      "trauma_level": 5,
      "helipad": false,
      "name": "ENCOMPASS HEALTH SUNRISE REHABILITATION HOSPITAL OF SUNRISE",
      "city": "SUNRISE",
      "state": "FL"
    },
    {
      "id": "0020633020",
      "lat": 26.009799076,
      "lon": -80.1442552459999,
      "beds": 119,
      "trauma_level": 5,
      "helipad": false,
      "name": "KINDRED HOSPITAL-SOUTH FLORIDA-HOLLYWOOD",
      "city": "HOLLYWOOD",
      "state": "FL"
    },
    {
      "id": "0026133021",
      "lat": 26.0021965710001,
      "lon": -80.179910353,
      "beds": 216,
      "trauma_level": 5,
      "helipad": false,
      "name": "MEMORIAL REGIONAL HOSPITAL SOUTH",
      "city": "HOLLYWOOD",
      "state": "FL"
    },
    {
      "id": "0043133324",
      "lat": 26.1232936660001,
      "lon": -80.2597341539999,
      "beds": 215,
      "trauma_level": 5,
      "helipad": true,
      "name": "WESTSIDE REGIONAL MEDICAL CENTER",
      "city": "PLANTATION",
      "state": "FL"
    },
    {
      "id": "0009533952",
      "lat": 26.9884183120001,
      "lon": -82.098069287,
      "beds": 237,
      "trauma_level": 5,
      "helipad": false,
      "name": "FAWCETT MEMORIAL HOSPITAL",
      "city": "PORT CHARLOTTE",
      "state": "FL"
    },
    {
      "id": "0009733050",
      "lat": 24.710362489,
      "lon": -81.094436333,
      "beds": 25,
      "trauma_level": 5,
      "helipad": true,
      "name": "FISHERMEN'S HOSPITAL",
      "city": "MARATHON",
      "state": "FL"
    },
    {
      "id": "0007033134",
      "lat": 25.74375681,
      "lon": -80.254824232,
      "beds": 245,
      "trauma_level": 5,
      "helipad": false,
      "name": "CORAL GABLES HOSPITAL",
      "city": "CORAL GABLES",
      "state": "FL"
    },
    {
      "id": "0017133013",
      "lat": 25.845561822,
      "lon": -80.268961621,
      "beds": 378,
      "trauma_level": 5,
      "helipad": false,
      "name": "HIALEAH HOSPITAL",
      "city": "HIALEAH",
      "state": "FL"
    },
    {
      "id": "0018733157",
      "lat": 25.6297447520001,
      "lon": -80.34469732,
      "beds": 250,
      "trauma_level": 2,
      "helipad": true,
      "name": "JACKSON SOUTH",
      "city": "MIAMI",
      "state": "FL"
    },
    {
      "id": "0019633175",
      "lat": 25.7309701130001,
      "lon": -80.3860672979999,
      "beds": 417,
      "trauma_level": 1,
      "helipad": true,
      "name": "KENDALL REGIONAL MEDICAL CENTER",
      "city": "MIAMI",
      "state": "FL"
    },
    {
      "id": "0022033143",
      "lat": 25.7056015540001,
      "lon": -80.293234743,
      "beds": 146,
      "trauma_level": 5,
      "helipad": false,
      "name": "LARKIN COMMUNITY HOSPITAL",
      "city": "SOUTH MIAMI",
      "state": "FL"
    },
    {
      "id": "0037433012",
      "lat": 25.8603370060001,
      "lon": -80.321534054,
      "beds": 72,
      "trauma_level": 5,
      "helipad": false,
      "name": "SOUTHERN WINDS HOSPITAL",
      "city": "HIALEAH",
      "state": "FL"
    },
    {
      "id": "0038133161",
      "lat": 25.8898723140001,
      "lon": -80.177659569,
      "beds": 20,
      "trauma_level": 5,
      "helipad": false,
      "name": "ST CATHERINE'S REHABILITATION HOSPITAL",
      "city": "NORTH MIAMI",
      "state": "FL"
    },
    {
      "id": "0038233018",
      "lat": 25.8837555170001,
      "lon": -80.3429732279999,
      "beds": 22,
      "trauma_level": 5,
      "helipad": false,
      "name": "ST CATHERINE'S WEST REHABILITATION HOSPITAL",
      "city": "HIALEAH GARDENS",
      "state": "FL"
    },
    {
      "id": "0042333155",
      "lat": 25.74698256,
      "lon": -80.316717357,
      "beds": 60,
      "trauma_level": 5,
      "helipad": false,
      "name": "WEST GABLES REHABILITATION HOSPITAL",
      "city": "MIAMI",
      "state": "FL"
    },
    {
      "id": "0023934994",
      "lat": 27.1999986600001,
      "lon": -80.2428133619999,
      "beds": 244,
      "trauma_level": 5,
      "helipad": true,
      "name": "CLEVELAND CLINIC MARTIN NORTH",
      "city": "STUART",
      "state": "FL"
    },
    {
      "id": "0023534208",
      "lat": 27.4970119180001,
      "lon": -82.561997648,
      "beds": 295,
      "trauma_level": 5,
      "helipad": true,
      "name": "MANATEE MEMORIAL HOSPITAL",
      "city": "BRADENTON",
      "state": "FL"
    },
    {
      "id": "0013932547",
      "lat": 30.454438731,
      "lon": -86.633210019,
      "beds": 237,
      "trauma_level": 2,
      "helipad": true,
      "name": "FORT WALTON BEACH MEDICAL CENTER",
      "city": "FORT WALTON BEACH",
      "state": "FL"
    },
    {
      "id": "0014932547",
      "lat": 30.4555941410001,
      "lon": -86.6359252939999,
      "beds": 24,
      "trauma_level": 5,
      "helipad": true,
      "name": "GULF COAST TREATMENT CENTER",
      "city": "FORT WALTON BEACH",
      "state": "FL"
    },
    {
      "id": "0035732060",
      "lat": 30.291267587,
      "lon": -83.002948429,
      "beds": 15,
      "trauma_level": 5,
      "helipad": true,
      "name": "SHANDS LIVE OAK REGIONAL MEDICAL CENTER",
      "city": "LIVE OAK",
      "state": "FL"
    },
    {
      "id": "0033632570",
      "lat": 30.6342186910001,
      "lon": -87.067095063,
      "beds": 129,
      "trauma_level": 5,
      "helipad": true,
      "name": "SANTA ROSA MEDICAL CENTER",
      "city": "MILTON",
      "state": "FL"
    },
    {
      "id": "0008732308",
      "lat": 30.4875110460001,
      "lon": -84.2393446999999,
      "beds": 46,
      "trauma_level": 5,
      "helipad": false,
      "name": "EASTSIDE PSYCHIATRIC HOSPITAL",
      "city": "TALLAHASSEE",
      "state": "FL"
    },
    {
      "id": "0016432308",
      "lat": 30.4596039640001,
      "lon": -84.237017834,
      "beds": 76,
      "trauma_level": 5,
      "helipad": false,
      "name": "ENCOMPASS HEALTH REHABILITATION HOSPITAL OF TALLAHASSEE",
      "city": "TALLAHASSEE",
      "state": "FL"
    },
    {
      "id": "0034632504",
      "lat": 30.478659088,
      "lon": -87.215686472,
      "beds": 75,
      "trauma_level": 5,
      "helipad": false,
      "name": "SELECT SPECIALTY HOSPITAL PENSACOLA",
      "city": "PENSACOLA",
      "state": "FL"
    },
    {
      "id": "0001932207",
      "lat": 30.315651152,
      "lon": -81.664707397,
      "beds": 691,
      "trauma_level": 5,
      "helipad": true,
      "name": "BAPTIST MEDICAL CENTER JACKSONVILLE",
      "city": "JACKSONVILLE",
      "state": "FL"
    },
    {
      "id": "0025032216",
      "lat": 30.288061779,
      "lon": -81.601508032,
      "beds": 425,
      "trauma_level": 2,
      "helipad": true,
      "name": "MEMORIAL HOSPITAL JACKSONVILLE",
      "city": "JACKSONVILLE",
      "state": "FL"
    },
    {
      "id": "0033432204",
      "lat": 30.3075286320001,
      "lon": -81.6906105259999,
      "beds": 528,
      "trauma_level": 5,
      "helipad": true,
      "name": "ASSENCION SAINT VINCENT'S MEDICAL CENTER RIVERSIDE",
      "city": "JACKSONVILLE",
      "state": "FL"
    },
    {
      "id": "0013732324",
      "lat": 30.706501673,
      "lon": -84.8413308999999,
      "beds": 987,
      "trauma_level": 5,
      "helipad": true,
      "name": "FLORIDA STATE HOSPITAL",
      "city": "CHATTAHOOCHEE",
      "state": "FL"
    },
    {
      "id": "0009132405",
      "lat": 30.1837817460001,
      "lon": -85.657782384,
      "beds": 86,
      "trauma_level": 5,
      "helipad": false,
      "name": "EMERALD COAST BEHAVIORAL HOSPITAL",
      "city": "PANAMA CITY",
      "state": "FL"
    },
    {
      "id": "0008832063",
      "lat": 30.285995976,
      "lon": -82.119258707,
      "beds": 25,
      "trauma_level": 5,
      "helipad": true,
      "name": "ED FRASER MEMORIAL HOSPITAL",
      "city": "MACCLENNY",
      "state": "FL"
    },
    {
      "id": "0028432063",
      "lat": 30.237409471,
      "lon": -82.133981529,
      "beds": 1138,
      "trauma_level": 5,
      "helipad": true,
      "name": "NORTHEAST FLORIDA STATE HOSPITAL",
      "city": "MACCLENNY",
      "state": "FL"
    },
    {
      "id": "0014632405",
      "lat": 30.187915882,
      "lon": -85.665176203,
      "beds": 238,
      "trauma_level": 5,
      "helipad": false,
      "name": "GULF COAST MEDICAL CENTER",
      "city": "PANAMA CITY",
      "state": "FL"
    },
    {
      "id": "0020932055",
      "lat": 30.1837289960001,
      "lon": -82.687744749,
      "beds": 67,
      "trauma_level": 5,
      "helipad": true,
      "name": "LAKE CITY MEDICAL CENTER",
      "city": "LAKE CITY",
      "state": "FL"
    },
    {
      "id": "0075934239",
      "lat": 27.318721752,
      "lon": -82.534122543,
      "beds": 86,
      "trauma_level": 5,
      "helipad": false,
      "name": "BAYSIDE CENTER FOR BEHAVIORAL HEALTH",
      "city": "SARASOTA",
      "state": "FL"
    },
    {
      "id": "0077232960",
      "lat": 27.661314309,
      "lon": -80.396430161,
      "beds": 46,
      "trauma_level": 5,
      "helipad": false,
      "name": "INDIAN RIVER MEDICAL CENTER-BEHAVIORAL HEALTH CENTER",
      "city": "VERO BEACH",
      "state": "FL"
    },
    {
      "id": "0077333136",
      "lat": 25.791161646,
      "lon": -80.209535068,
      "beds": 239,
      "trauma_level": 5,
      "helipad": false,
      "name": "JACKSON MEMORIAL MENTAL HEALTH CENTER - INPATIENT",
      "city": "MIAMI",
      "state": "FL"
    },
    {
      "id": "0079033612",
      "lat": 28.0614677890001,
      "lon": -82.427994881,
      "beds": 16,
      "trauma_level": 5,
      "helipad": false,
      "name": "NORTHSIDE MENTAL HEALTH",
      "city": "TAMPA",
      "state": "FL"
    },
    {
      "id": "0078634102",
      "lat": 26.150644889,
      "lon": -81.798742969,
      "beds": 391,
      "trauma_level": 5,
      "helipad": true,
      "name": "NAPLES COMMUNITY HOSPITAL",
      "city": "NAPLES",
      "state": "FL"
    },
    {
      "id": "0080332563",
      "lat": 30.3977763230001,
      "lon": -87.0394330939999,
      "beds": 30,
      "trauma_level": 5,
      "helipad": false,
      "name": "THE FRIARY OF LAKEVIEW CENTER",
      "city": "GULF BREEZE",
      "state": "FL"
    },
    {
      "id": "0080433484",
      "lat": 26.4363485430001,
      "lon": -80.129492139,
      "beds": 53,
      "trauma_level": 5,
      "helipad": true,
      "name": "FAIR OAKS PAVILION - PSYCHIATRIC HOSPITAL",
      "city": "DELRAY BEACH",
      "state": "FL"
    },
    {
      "id": "0079632606",
      "lat": 29.691822351,
      "lon": -82.436196638,
      "beds": 81,
      "trauma_level": 5,
      "helipad": false,
      "name": "UH HEALTH SHANDS PSYCHIATRIC HOSPITAL",
      "city": "GAINESVILLE",
      "state": "FL"
    },
    {
      "id": "0080233325",
      "lat": 26.1122530050001,
      "lon": -80.348686003,
      "beds": 100,
      "trauma_level": 5,
      "helipad": false,
      "name": "PLUM VILLAGE HEALTH",
      "city": "SUNRISE",
      "state": "FL"
    },
    {
      "id": "0000000015",
      "lat": 30.3985699510001,
      "lon": -87.298615689,
      "beds": -999,
      "trauma_level": 5,
      "helipad": true,
      "name": "NAVAL HOSPITAL PENSACOLA",
      "city": "PENSACOLA",
      "state": "FL"
    },
    {
      "id": "0044132214",
      "lat": 30.20883704,
      "lon": -81.684105775,
      "beds": 64,
      "trauma_level": 5,
      "helipad": false,
      "name": "NAVAL HOSPITAL JACKSONVILLE",
      "city": "JACKSONVILLE",
      "state": "FL"
    },
    {
      "id": "0019834474",
      "lat": 29.176103643,
      "lon": -82.1383737849999,
      "beds": 31,
      "trauma_level": 5,
      "helipad": false,
      "name": "ADVENTHEALTH OCALA",
      "city": "OCALA",
      "state": "FL"
    },
    {
      "id": "0031433952",
      "lat": 26.988925185,
      "lon": -82.0956902579999,
      "beds": 254,
      "trauma_level": 5,
      "helipad": false,
      "name": "BAYFRONT HEALTH PORT CHARLOTTE",
      "city": "PORT CHARLOTTE",
      "state": "FL"
    },
    {
      "id": "0023132608",
      "lat": 29.637698481,
      "lon": -82.344669083,
      "beds": 222,
      "trauma_level": 5,
      "helipad": false,
      "name": "MALCOM RANDALL VA MEDICAL CENTER",
      "city": "GAINESVILLE",
      "state": "FL"
    },
    {
      "id": "0026733125",
      "lat": 25.7912225210001,
      "lon": -80.216724918,
      "beds": 281,
      "trauma_level": 5,
      "helipad": false,
      "name": "MIAMI VA HEALTHCARE SYSTEM",
      "city": "MIAMI",
      "state": "FL"
    },
    {
      "id": "0023032340",
      "lat": 30.4705140890001,
      "lon": -83.411497058,
      "beds": 25,
      "trauma_level": 5,
      "helipad": true,
      "name": "MADISON COUNTY MEMORIAL HOSPITAL",
      "city": "MADISON",
      "state": "FL"
    },
    {
      "id": "0076432347",
      "lat": 30.127912516,
      "lon": -83.5780487179999,
      "beds": 48,
      "trauma_level": 5,
      "helipad": false,
      "name": "DOCTORS MEMORIAL HOSPITAL",
      "city": "PERRY",
      "state": "FL"
    },
    {
      "id": "0078834981",
      "lat": 27.3759496650001,
      "lon": -80.371415314,
      "beds": 150,
      "trauma_level": 5,
      "helipad": false,
      "name": "NEW HORIZONS OF TREASURE COAST - MENTAL HEALTH CENTER",
      "city": "FORT PIERCE",
      "state": "FL"
    },
    {
      "id": "0004433308",
      "lat": 26.207051762,
      "lon": -80.1108702019999,
      "beds": 204,
      "trauma_level": 5,
      "helipad": false,
      "name": "BROWARD HEALTH IMPERIAL POINT",
      "city": "FORT LAUDERDALE",
      "state": "FL"
    },
    {
      "id": "0000233701",
      "lat": 27.7646375240001,
      "lon": -82.640753708,
      "beds": 259,
      "trauma_level": 5,
      "helipad": true,
      "name": "JOHN HOPKINS ALL CHILDREN'S HOSPITAL",
      "city": "SAINT PETERSBURG",
      "state": "FL"
    },
    {
      "id": "0019732901",
      "lat": 28.092831,
      "lon": -80.6324099999999,
      "beds": 60,
      "trauma_level": 5,
      "helipad": false,
      "name": "KINDRED HOSPITAL MELBOURNE",
      "city": "MELBOURNE",
      "state": "FL"
    },
    {
      "id": "0178234769",
      "lat": 28.2600870000001,
      "lon": -81.314139,
      "beds": 42,
      "trauma_level": 5,
      "helipad": false,
      "name": "BLACKBERRY CENTER",
      "city": "SAINT CLOUD",
      "state": "FL"
    },
    {
      "id": "0017333021",
      "lat": 26.0211580000001,
      "lon": -80.1805009999999,
      "beds": 50,
      "trauma_level": 5,
      "helipad": true,
      "name": "LARKIN COMMUNITY HOSPITAL BEHAVIORAL HEALTH SERVICES",
      "city": "HOLLYWOOD",
      "state": "FL"
    },
    {
      "id": "0183933334",
      "lat": 26.1977746210001,
      "lon": -80.1331516549999,
      "beds": 182,
      "trauma_level": 5,
      "helipad": false,
      "name": "FORT LAUDERDALE BEHAVIORAL HEALTH CENTER",
      "city": "OAKLAND PARK",
      "state": "FL"
    },
    {
      "id": "0193632796",
      "lat": 28.6403539560001,
      "lon": -80.8300075399999,
      "beds": 74,
      "trauma_level": 5,
      "helipad": false,
      "name": "PALM POINT BEHAVIORAL HEALTH",
      "city": "TITUSVILLE",
      "state": "FL"
    },
    {
      "id": "0043932935",
      "lat": 28.109319869,
      "lon": -80.6748236669999,
      "beds": 119,
      "trauma_level": 5,
      "helipad": false,
      "name": "MELBOURNE REGIONAL MEDICAL CENTER",
      "city": "MELBOURNE",
      "state": "FL"
    },
    {
      "id": "0004133637",
      "lat": 28.0703960860001,
      "lon": -82.3573376539999,
      "beds": 53,
      "trauma_level": 5,
      "helipad": false,
      "name": "JAMES A. HALEY VETERANS' HOSPITAL PRIMARY CARE ANNEX",
      "city": "TAMPA",
      "state": "FL"
    },
    {
      "id": "0187833136",
      "lat": 25.79114988,
      "lon": -80.2107186869999,
      "beds": 100,
      "trauma_level": 5,
      "helipad": false,
      "name": "UNIVERSITY OF MIAMI HOSPITAL AND CLINICS-BASCOM PALMER EYE INST",
      "city": "MIAMI",
      "state": "FL"
    },
    {
      "id": "0186432746",
      "lat": 28.769639,
      "lon": -81.3483889999999,
      "beds": -999,
      "trauma_level": 5,
      "helipad": false,
      "name": "ARNOLD PALMER HOSPITAL FOR CHILDREN",
      "city": "LAKE MARY",
      "state": "FL"
    },
    {
      "id": "0184632504",
      "lat": 30.4757070000001,
      "lon": -87.211843,
      "beds": 566,
      "trauma_level": 2,
      "helipad": true,
      "name": "ASCENSION SACRED HEART HOSPITAL PENSACOLA",
      "city": "PENSACOLA",
      "state": "FL"
    },
    {
      "id": "0192232340",
      "lat": 30.471301,
      "lon": -83.418787,
      "beds": 25,
      "trauma_level": 5,
      "helipad": true,
      "name": "MADISON COUNTY MEMORIAL HOSPITAL",
      "city": "MADISON",
      "state": "FL"
    }
  ],
  "timestamp": 0,
  "num_casualties": 60,
  "metadata": {
    "location_id": "tampa_1",
    "location_name": "Tampa 1",
    "description": "Tampa Bay area - Location 1",
    "region": "FL",
    "is_benchmark": true
  }
}